[{"id":18289624,"name":"Weatherization Assistance Program - PRAB","address":"90 Jersey Ave","city":"New Brunswick","state":"NJ","zip":"08901","country":"USA","phone":"732-828-4672","websiteUrl":"https://prab.org/programs-services/energy-conservation/","imageUrl":"","iconUrl":"","info":"\u003cp\u003eThe Puerto Rican Action Board\u0027s Weatherization Assistance Program reduces energy costs for low-income households by increasing the energy efficiency of their homes, while ensuring health and safety.\u003c/p\u003e","latitude":40.488426,"longitude":-74.4575229,"categories":"All Categories;Be Well::Children \u0026 Youth","featured":false,"featuredText":"FALSE"},{"id":18289150,"name":"Tobacco Dependence Clinic","address":"125 Paterson St, Suite 2300","city":"New Brunswick","state":"NJ","zip":"08901","country":"USA","phone":"732-235-8222","websiteUrl":"http://www.tobaccoprogram.org/","imageUrl":"","iconUrl":"","info":"\u003cp\u003eThe Tobacco Dependence Program (TDP) is dedicated to reducing the harm to health caused by tobacco use. The TDP particularly aims to provide expertise on quitting smoking through education, treatment, research, and advocacy.\u003c/p\u003e","latitude":40.4946314,"longitude":-74.4490065,"categories":"All Categories;Be Well::Adults;Feel Well::Adults","featured":false,"featuredText":"FALSE"},{"id":18289144,"name":"The Life Center-Cancer Risk Assessment and Genetic Counseling Program","address":"195 Little Albany St","city":"New Brunswick","state":"NJ","zip":"08901","country":"USA","phone":"732-235-7110","websiteUrl":"http://www.cinj.org/patient-care/adult/GeneticCounseling","imageUrl":"","iconUrl":"","info":"\u003cp\u003eThe LPGA pros In the Fight to Eradicate breast cancer (LIFE) Center at the Cancer Institute of New Jersey is dedicated to teaching young women how to maintain breast health, reduce the factors that increase their risk of breast cancer and test for determining level of risk for breast cancer.\u003c/p\u003e","latitude":40.4965303,"longitude":-74.4485775,"categories":"All Categories;Be Well::Adults","featured":false,"featuredText":"FALSE"},{"id":18288946,"name":"The Children\u0027s Hospital at Saint Peter\u0027s University Hospital","address":"254 Easton Ave","city":"New Brunswick","state":"NJ","zip":"08901","country":"USA","phone":"732-565-5437","websiteUrl":"http://www.saintpetershcs.com/spchildrenshospital/","imageUrl":"","iconUrl":"","info":"\u003cp\u003eThe Children’s Hospital at Saint Peter’s University Hospital offers a full-range of pediatric specialized healthcare services for newborns and children through young adulthood.\u003c/p\u003e","latitude":40.5014908,"longitude":-74.459056,"categories":"All Categories;Feel Well::Children \u0026 Youth","featured":false,"featuredText":"FALSE"},{"id":18289014,"name":"The Cancer Institute of New Jersey","address":"195 Little Albany St","city":"New Brunswick","state":"NJ","zip":"08901","country":"USA","phone":"732-235-8515","websiteUrl":"http://www.cinj.org/?utm_source=bing\u0026utm_medium=cpc\u0026utm_campaign=CINJ%20Brand\u0026utm_term=the%20cancer%20institute","imageUrl":"","iconUrl":"","info":"\u003cp\u003eThe Rutgers Cancer Institute of New Jersey is dedicated to improving the prevention, detection, treatment, and care of patients with cancer, through the transformation of laboratory discoveries into clinical practice. The Cancer Institute of New Jersey delivers advanced comprehensive care to adults and children.\u003c/p\u003e","latitude":40.4965303,"longitude":-74.4485775,"categories":"All Categories;Feel Well::Adults;Feel Well::Children \u0026 Youth;Feel Well::Seniors","featured":false,"featuredText":"FALSE"},{"id":18282942,"name":"Information on Health Insurance Options (on and off)","address":"222 Livingston Avenue","city":"New Brunswick","state":"08901","zip":"NJ","country":"US","phone":"732-296-9922","websiteUrl":"http://www.aecdc.org/our-services/iohio","imageUrl":"","iconUrl":"","info":"\u003cp\u003eThrough \u0026#160;I.O.H.I.O. people with questions about Medicare, Charity Care and New Jersey FamilyCare can talk to staff and trained volunteers who will help them.\u003c/p\u003e","latitude":40.4855153,"longitude":-74.4515591,"categories":"All Categories;Be Well::Adults","featured":false,"featuredText":"FALSE"},{"id":18282943,"name":"Baby Equipment Lovingly Loaned","address":"222 Livingston Avenue","city":"New Brunswick","state":"08901","zip":"NJ","country":"USA","phone":"732-296-9922","websiteUrl":"http://www.aecdc.org/our-services/bfed","imageUrl":"","iconUrl":"","info":"\u003cp\u003eThe Baby Formula and Emergency Diapers (BFED) program distributes one week’s worth of diapers, wipes, and/or formula for each young child in families referred to them.\u003c/p\u003e","latitude":40.4855153,"longitude":-74.4515591,"categories":"All Categories;Be Well::Children \u0026 Youth","featured":false,"featuredText":"FALSE"},{"id":18282945,"name":"Health Equipment Loan","address":"222 Livingston Avenue","city":"New Brunswick","state":"NJ","zip":"08901","country":"US","phone":"732-296-9922","websiteUrl":"http://www.aecdc.org/our-services/help","imageUrl":"","iconUrl":"","info":"\u003cp\u003eThrough H.E.L.P. people can borrow a variety of medical equipment like shower seats and walkers.\u003c/p\u003e","latitude":40.4855153,"longitude":-74.4515591,"categories":"All Categories;Be Well::Seniors","featured":false,"featuredText":"FALSE"},{"id":18282946,"name":"Intensive Outpatient Program","address":"123 How Lane","city":"New Brunswick","state":"NJ","zip":"08901","country":"US","phone":"732-993-6403","websiteUrl":"https://www.cge-nj.org/program-offerings/outpatient-services/","imageUrl":"","iconUrl":"","info":"\u003cp\u003eThe Center for Great Expectations Outpatient Services, located at the Clinic of St. Peter’s University Hospital in New Brunswick, NJ, is a community-based outpatient program addressing the ongoing needs of women recovering from substance use disorders.\u003c/p\u003e","latitude":40.4713601,"longitude":-74.4830174,"categories":"All Categories;Be Well::Adults","featured":false,"featuredText":"FALSE"},{"id":18282948,"name":"Central Jersey Legal Services, Inc.","address":"317 George Street, Suite 201","city":"New Brunswick","state":"NJ","zip":"08901","country":"US","phone":"732-249-7600","websiteUrl":"http://www.lsnj.org/cjls/index.htm","imageUrl":"","iconUrl":"","info":"\u003cp\u003eCentral Jersey Legal Services is a nonprofit law firm that offers free legal help in civil (non-criminal) cases for low-income residents of Mercer, Middlesex and Union Counties.\u003c/p\u003e","latitude":40.4930726,"longitude":-74.4429185,"categories":"All Categories;Be Well::Adults","featured":false,"featuredText":"FALSE"},{"id":18282949,"name":"Choices, Inc.","address":"317 George Street, Suite 105","city":"New Brunswick","state":"NJ","zip":"08901","country":"US","phone":"732-235-8232","websiteUrl":"http://www.njchoices.org/","imageUrl":"","iconUrl":"","info":"\u003cp\u003eCHOICES is an exciting new consumer-driven program for smokers with mental illness in New Jersey.\u003c/p\u003e","latitude":40.4930726,"longitude":-74.4429185,"categories":"All Categories;Feel Well::Adults","featured":false,"featuredText":"FALSE"},{"id":18283002,"name":"Council on Compulsive Gambling of New Jersey, Inc.","address":"18 Ag Extension Way","city":"New Brunswick","state":"NJ","zip":"08901","country":"US","phone":"973-316-1800","websiteUrl":"http://www.800gambler.org/","imageUrl":"","iconUrl":"","info":"\u003cp\u003eThis is the closest Gamblers Anonymous meeting, on Rutgers\u0027s Cook Campus Thursday 7:00-8:30 pm.\u0026#160;\u003c/p\u003e","latitude":40.4722178,"longitude":-74.4360592,"categories":"All Categories;Feel Well::Adults","featured":false,"featuredText":"FALSE"},{"id":18283003,"name":"Bag Meal Lunch Program","address":"18 Neilson St","city":"New Brunswick","state":"NJ","zip":"08901","country":"USA","phone":"732-545-9002","websiteUrl":"http://www.elijahspromise.org/what-we-do/community-kitchen/","imageUrl":"","iconUrl":"","info":"\u003cp\u003eThe Elijah\u0027s Promise Bag Lunch Program provides a meal “to go” for people who are working or unable to make it to meal times.\u003c/p\u003e","latitude":40.4888349,"longitude":-74.4395011,"categories":"All Categories;Eat Well::Children \u0026 Youth;Eat Well::Adults;Eat Well::Seniors","featured":false,"featuredText":"FALSE"},{"id":18283004,"name":"Community Soup Kitchen - Elijah\u0027s Promise","address":"18 Neilson St","city":"New Brunswick","state":"NJ","zip":"08901","country":"USA","phone":"732-545-9002","websiteUrl":"http://www.elijahspromise.org/what-we-do/community-kitchen/","imageUrl":"","iconUrl":"","info":"\u003cp\u003eElijah\u0027s Promise Community Soup Kitchen serves an average of 300 free meals every day to those in need. They serve meals Monday through Friday from 11am to 7pm and Saturdays and Sundays from 1pm to 4pm.\u003c/p\u003e","latitude":40.4888349,"longitude":-74.4395011,"categories":"All Categories;Eat Well::Children \u0026 Youth;Eat Well::Adults;Eat Well::Seniors","featured":false,"featuredText":"FALSE"},{"id":18283005,"name":"Promise Jobs Culinary","address":"211 Livingston Ave","city":"New Brunswick","state":"NJ","zip":"08901","country":"USA","phone":"732-545-9002","websiteUrl":"http://www.elijahspromise.org/what-we-do/promise-culinary/","imageUrl":"","iconUrl":"","info":"\u003cp\u003eHighly skilled professional staff instruct on a wide variety of culinary fundamentals such as knife skills, cooking methods, catering, and much more. The Baking and Pastry Arts program gives a thorough education on the fundamentals of baking and pastry, including breads, cake preparation, plated desserts as well as alternative diet options such as vegan, dairy-free and diabetic friendly desserts and more.\u003c/p\u003e","latitude":40.4866322,"longitude":-74.4514874,"categories":"All Categories;Be Well::Adults","featured":false,"featuredText":"FALSE"},{"id":18283007,"name":"George St Co-op, Inc.","address":"89 Morris St","city":"New Brunswick","state":"NJ","zip":"08901","country":"USA","phone":"732-247-8280","websiteUrl":"http://georgestreetcoop.com/","imageUrl":"","iconUrl":"","info":"\u003cp\u003eThe George Street Co-op is a non-profit natural foods store owned and run by its members. \u0026#160;We sell vegetarian foods with the greatest nutritional value possible, and only minimal processing or additives.\u003c/p\u003e","latitude":40.4917674,"longitude":-74.4450083,"categories":"All Categories;Eat Well::Children \u0026 Youth;Eat Well::Adults;Eat Well::Seniors","featured":false,"featuredText":"FALSE"},{"id":18283008,"name":"Keep Middlesex Moving, Inc.","address":"100 Bayard St., 2nd floor","city":"New Brunswick","state":"NJ","zip":"08901","country":"USA","phone":"732-745-4465","websiteUrl":"http://www.kmm.org","imageUrl":"","iconUrl":"","info":"\u003cp\u003eKMM\u0027s mission is to improve mobility, reduce traffic congestion and improve air quality, thereby making Middlesex County a better place to live, work and do business. We work with our members - your fellow businesses, municipalities and developers - to create transportation solutions and support alternatives such as carpooling, vanpooling, mass transit, compressed work week, telecommuting and much more.\u003c/p\u003e","latitude":40.4935798,"longitude":-74.4473015,"categories":"All Categories;Move Well::Adults","featured":false,"featuredText":"FALSE"},{"id":18283009,"name":"Reduced Fee Lawyer Referral Program","address":"87 Bayard St","city":"New Brunswick","state":"NJ","zip":"08901","country":"USA","phone":"732-828-0053","websiteUrl":"http://www.mcbalaw.com/?5","imageUrl":"","iconUrl":"","info":"\u003cp\u003eThe purpose of the Reduced Fee Program (RFP) is to extend the Middlesex County Bar Association’s Lawyer Referral Service to people who cannot afford to pay attorneys fees at rates which would ordinarily be charged AND who do not qualify for free legal assistance from the Middlesex County Legal Services Corporation or other no cost legal services.\u003c/p\u003e","latitude":40.4941397,"longitude":-74.4467596,"categories":"All Categories;Be Well::Adults","featured":false,"featuredText":"FALSE"},{"id":18283010,"name":"Boarding Home and Rooming House Services","address":"181 How Lane","city":"New Brunswick","state":"NJ","zip":"08901","country":"USA","phone":"732-745-3500","websiteUrl":"http://middlesexcwa.newark.rutgers.edu/programs.html#program2","imageUrl":"","iconUrl":"","info":"\u003cp\u003eThe Boarding Home and Rooming House Services investigate complaints of abuse, neglect and exploitation of residents of boarding homes, residential health care facilities, rooming houses and unlicensed facilities, as well as providing outreach services.\u0026#160;\u003c/p\u003e","latitude":40.4753897,"longitude":-74.4869142,"categories":"All Categories;Be Safe::Home Services","featured":false,"featuredText":"FALSE"},{"id":18283011,"name":"Middlesex County Safe Housing Program","address":"75 Bayard St, 5th floor","city":"New Brunswick","state":"NJ","zip":"08901","country":"USA","phone":"732-257-2340","websiteUrl":"http://www.co.middlesex.nj.us/Government/Departments/CS/Pages/Aging%20and%20Disabled%20Services/Office_AgingDisabled.aspx","imageUrl":"","iconUrl":"","info":"\u003cp\u003eHome maintenance services are provided for Middlesex homeowners ages 60 and over. Their goal is to provide safe, healthy, and secure homes to those that can\u0027t perform the tasks on their own.\u003c/p\u003e","latitude":40.4943956,"longitude":-74.4463436,"categories":"All Categories;Be Well::Seniors","featured":false,"featuredText":"FALSE"},{"id":18283012,"name":"Senior Meal Program of Middlesex County","address":"75 Bayard St, 5th floor","city":"New Brunswick","state":"NJ","zip":"08901","country":"USA","phone":"732-745-2062","websiteUrl":"http://www.co.middlesex.nj.us/Government/Departments/CS/Pages/Aging%20and%20Disabled%20Services/Nutrition-Services.aspx","imageUrl":"","iconUrl":"","info":"\u003cp\u003eSenior Meal Program is available to Middlesex County Seniors aged 60 and older. The program has a varied menu of tasty entrees and also offer a daily vegetarian menu and accommodate specialized diet for diabetics.\u003c/p\u003e","latitude":40.4943956,"longitude":-74.4463436,"categories":"All Categories;Eat Well::Seniors","featured":false,"featuredText":"FALSE"},{"id":18283019,"name":"Aging information and Assistance","address":"75 Bayard St, 5th floor","city":"New Brunswick","state":"NJ","zip":"08901","country":"USA","phone":"732-745-3295","websiteUrl":"http://www.co.middlesex.nj.us/Government/Departments/CS/Pages/Aging%20and%20Disabled%20Services/Information-and-Assistance.aspx","imageUrl":"","iconUrl":"","info":"\u003cp\u003eThe Information \u0026amp; Assistance staff provides information, assistance, referral and advocacy for seniors, persons with disabilities, their caregivers and the general public needing access to services.\u0026#160;\u003c/p\u003e","latitude":40.4943956,"longitude":-74.4463436,"categories":"All Categories;Be Well::Seniors","featured":false,"featuredText":"FALSE"},{"id":18283031,"name":"Statewide Respite Care Program","address":"75 Bayard St, 5th floor","city":"New Brunswick","state":"NJ","zip":"08901","country":"USA","phone":"732-745-3295","websiteUrl":"http://www.co.middlesex.nj.us/Government/Departments/CS/Documents/Aging/statewide_respite_care_brochure.pdf","imageUrl":"","iconUrl":"","info":"\u003cp\u003eThe Statewide Respite Care Program is designed to provide assistance to families by giving unpaid caregivers a break from the daily responsibility of caring for an elderly or disabled relative or friend.\u003c/p\u003e","latitude":40.4943956,"longitude":-74.4463436,"categories":"All Categories;Be Well::Seniors","featured":false,"featuredText":"FALSE"},{"id":18283038,"name":"Middlesex County Office on Consumer Affairs","address":"711 Jersey Avenue","city":"New Brunswick","state":"NJ","zip":"08901","country":"USA","phone":"732-745-3875","websiteUrl":"http://www.co.middlesex.nj.us/Government/Departments/PSH/Pages/Office_Inspections.aspx","imageUrl":"","iconUrl":"","info":"\u003cp\u003eThe Office of Consumer Affairs is responsible for protecting the interests of thousands of consumers by serving as an advocate for their safety and economic well-being and by promoting legal and ethical standards of professional conduct.\u003c/p\u003e","latitude":40.4757548,"longitude":-74.4743664,"categories":"All Categories;Be Well::Adults","featured":false,"featuredText":"FALSE"},{"id":18283039,"name":"Middlesex County Office of Victim-Witness Advocacy","address":"25 Kirkpatrick St, 3rd Fl","city":"New Brunswick","state":"NJ","zip":"08901","country":"USA","phone":"732-745-3394","websiteUrl":"http://www.co.middlesex.nj.us/Government/Departments/PSH/Prosecutor/Pages/MCPO/VWUnit.aspx","imageUrl":"","iconUrl":"","info":"\u003cp\u003eThe purpose of the Victim Witness Unit is to insure the rights of crime victims by providing direct services to crime victims who come to the attention of the County Criminal Justice System. Services are standardized statewide to include components such as case status notification, court accompaniment, referral for counseling services, and safe waiting areas.\u003c/p\u003e","latitude":40.4946001,"longitude":-74.4466524,"categories":"All Categories;Be Safe::Home Services","featured":false,"featuredText":"FALSE"},{"id":18283040,"name":"Middlesex County Victim Advocacy Center","address":"25 Kirkpatrick St, 3rd Fl","city":"New Brunswick","state":"NJ","zip":"08901","country":"USA","phone":"732-745-3394","websiteUrl":"http://www.co.middlesex.nj.us/Government/Departments/PSH/Prosecutor/Pages/MCPO/VWC.aspx","imageUrl":"","iconUrl":"","info":"\u003cp\u003eThis is a neutral setting to coordinate services and expedite the investigations and prosecution of cases involving adult or child victims. Further, necessary services would be immediately available on-site to address the needs of victims and their families.\u003c/p\u003e","latitude":40.4946001,"longitude":-74.4466524,"categories":"All Categories;Be Safe::Home Services","featured":false,"featuredText":"FALSE"},{"id":18283041,"name":"Middlesex County Department of Housing and Community Development","address":"75 Bayard St","city":"New Brunswick","state":"NJ","zip":"08901","country":"USA","phone":"732-745-3025","websiteUrl":"http://www.co.middlesex.nj.us/Government/Departments/CS/Pages/Housing/Housing%20and%20Socia%20lServices.aspx","imageUrl":"","iconUrl":"","info":"\u003cp\u003ezThe Division of Housing and Community Development administers three housing programs funded by the U.S. Department of Housing and Urban Development (HUD): Section 8 Rental Assistance; Community Development Block Grant (CDBG); and HOME Investment Partnerships.\u0026#160;\u003c/p\u003e","latitude":40.4943956,"longitude":-74.4463436,"categories":"All Categories;Be Safe::Home Services","featured":false,"featuredText":"FALSE"},{"id":18283042,"name":"Middlesex County Sheriff\u0027s Office","address":"701 Livingston Ave","city":"New Brunswick","state":"NJ","zip":"08901","country":"USA","phone":"732-745-3271","websiteUrl":"http://www.co.middlesex.nj.us/Government/Departments/PSH/Pages/Office_Sheriff.aspx","imageUrl":"","iconUrl":"","info":"\u003cp\u003eThe primary duty of the Sheriff is the Security of the County Courthouses and protecting all personnel assigned to these facilities as well as providing \u0026#160;emergency medical aid to any and all personnel who may be in the Criminal or Family Courthouses.\u0026#160;\u003c/p\u003e","latitude":40.4762742,"longitude":-74.4623143,"categories":"All Categories;Be Safe::Home Services","featured":false,"featuredText":"FALSE"},{"id":18283054,"name":"New Brunswick City Clerk","address":"78 Bayard St","city":"New Brunswick","state":"NJ","zip":"08901","country":"USA","phone":"732-745-5040","websiteUrl":"http://thecityofnewbrunswick.org/clerks-office/","imageUrl":"","iconUrl":"","info":"\u003cp\u003eThe New Brunswick City Clerk acts as secretary to the governing body, serves as chief registrant of voters in the municipality, and serves as administrative officer that accepts applications for licenses and permits.\u003c/p\u003e","latitude":40.4939069,"longitude":-74.4456473,"categories":"All Categories;Be Safe::Home Services","featured":false,"featuredText":"FALSE"},{"id":18283055,"name":"New Brunswick Counseling Center","address":"320 Suydam St","city":"New Brunswick","state":"NJ","zip":"08901","country":"USA","phone":"732-246-4025","websiteUrl":"http://newbrunswickcounselingcenter.org/","imageUrl":"","iconUrl":"","info":"\u003cp\u003eThe New Brunswick Counseling Center provides outpatient treatment for adults and adolescents with mental health and/or substance use disorders.\u003c/p\u003e","latitude":40.4912403,"longitude":-74.4517607,"categories":"All Categories;Feel Well::Adults;Feel Well::Children \u0026 Youth;Feel Well::Seniors","featured":false,"featuredText":"FALSE"},{"id":18283584,"name":"New Brunswick Free Public Library","address":"60 Livingston Ave","city":"New Brunswick","state":"NJ","zip":"08901","country":"USA","phone":"732-745-5108","websiteUrl":"http://www.nbfpl.org/","imageUrl":"","iconUrl":"","info":"\u003cp\u003ePeople who live, work, own property, or attend school in the City of New Brunswick may register for a library card without charge. Members of the library may borrow books, magazines, DVDs, and audio books. They may also use the library\u0027s computers, electronic indexes, and meeting rooms.\u003c/p\u003e","latitude":40.4913016,"longitude":-74.4455133,"categories":"All Categories;Be Well::Children \u0026 Youth;Be Well::Adults;Be Well::Seniors;Be Safe::Home Services","featured":false,"featuredText":"FALSE"},{"id":18285877,"name":"New Brunswick Housing and Redevelopment Authority","address":"7 Van Dyke Ave","city":"New Brunswick","state":"NJ","zip":"08901","country":"USA","phone":"732-745-5157","websiteUrl":"http://www.newbrunswickhousing.org/","imageUrl":"","iconUrl":"","info":"\u003cp\u003eThe Housing Authority of the City of New Brunswick (which also operates as The New Brunswick Housing Authority, or The New Brunswick Housing and Redevelopment Authority, and NBHA) is a public body organized and operating according to the laws of the State of New Jersey to manage, build, own, and operate assisted and affordable housing and may act as a redevelopment authority in accordance with State law.\u003c/p\u003e","latitude":40.4812126,"longitude":-74.4702375,"categories":"All Categories;Be Safe::Home Services","featured":false,"featuredText":"FALSE"},{"id":18289226,"name":"Community Garden at Feaster Park - Unity Square","address":"81 Remsen Ave","city":"New Brunswick","state":"NJ","zip":"08901","country":"USA","phone":"732-545-0329","websiteUrl":"http://www.ccdom.org/unity-square/unity-square","imageUrl":"","iconUrl":"","info":"\u003cp\u003eUnity Square offers plots of land for citizens to plant their own vegetables. Resources are provided, residents just need to sign up in the spring.\u003c/p\u003e","latitude":40.4874713,"longitude":-74.4449129,"categories":"All Categories;Eat Well::Children \u0026 Youth;Eat Well::Adults;Eat Well::Seniors","featured":false,"featuredText":"FALSE"},{"id":18289237,"name":"Elementary After School Programs","address":"47-49 Throop Ave","city":"New Brunswick","state":"NJ","zip":"08901","country":"USA","phone":"732-247-9066","websiteUrl":"http://www.civicleague.com/#!elemenary-after-school-program/cnwt","imageUrl":"","iconUrl":"","info":"\u003cp\u003eThe Civic League of Greater New Brunswick conducts an after school program in which students have elements of science, technology, engineering, physical education, and performing and visual arts through project-based learning.\u003c/p\u003e","latitude":40.4870828,"longitude":-74.4427035,"categories":"All Categories;Be Well::Children \u0026 Youth","featured":false,"featuredText":"FALSE"},{"id":18639458,"name":"Five Loaves Food Pantry","address":"100 College Avenue","city":"New Brunswick","state":"NJ","zip":"08901","country":"USA","phone":"732-545-0581","websiteUrl":"https://www.facebook.com/pages/Five-Loaves-Food-Pantry/177753575640190","imageUrl":"","iconUrl":"","info":"\u003cp\u003eThe Second Reformed Church New Brunswick \u0026#160;is running a food pantry for the local community. The food pantry is unique in that families get to choose their own food rather than receive a pre-packaged set. Families are given “points” based on the number of members in the family. These points can be redeemed for foods across several categories – proteins, beans, vegetables, fruits, rice, pasta, cereals and miscellaneous items.\u003c/p\u003e","latitude":40.5012502,"longitude":-74.4504703,"categories":"All Categories;Eat Well::Children \u0026 Youth;Eat Well::Adults;Eat Well::Seniors;Be Well::Children \u0026 Youth;Be Well::Adults;Be Well::Seniors","featured":false,"featuredText":"FALSE"},{"id":18639454,"name":"Food Pantry - Ebenezer Baptist Church","address":"126 Lee Street","city":"New Brunswick","state":"NJ","zip":"08901","country":"USA","phone":"732-247-2459","websiteUrl":"http://ebconline.moonfruit.com/feed-my-sheep-ministry/4589202393","imageUrl":"","iconUrl":"","info":"\u003cp\u003eEbenezer Baptist Church’s food pantry serves anyone in need of emegency food services.\u003c/p\u003e","latitude":40.4856462,"longitude":-74.4491786,"categories":"All Categories;Eat Well::Children \u0026 Youth;Eat Well::Adults;Eat Well::Seniors","featured":false,"featuredText":"FALSE"},{"id":18639457,"name":"Food Pantry - Emanuel Lutheran Church","address":"151 New Street","city":"New Brunswick","state":"NJ","zip":"08901","country":"USA","phone":"732-545-2673","websiteUrl":"http://www.emanuelnb.org/outreach-mission/our-food-pantry","imageUrl":"","iconUrl":"","info":"\u003cp\u003eThe Emanuel Lutheran pantry serves those in need who may access food once a month.\u003c/p\u003e","latitude":40.4926331,"longitude":-74.4462357,"categories":"All Categories;Eat Well::Children \u0026 Youth;Eat Well::Adults;Eat Well::Seniors;Be Well::Children \u0026 Youth;Be Well::Adults;Be Well::Seniors","featured":false,"featuredText":"FALSE"},{"id":18639477,"name":"Food Pantry - Suydam Street Reformed Church","address":"74 Drift Street","city":"New Brunswick","state":"NJ","zip":"08901","country":"USA","phone":"732-249-6803","websiteUrl":"http://www.suydamstreetreformedchurch.org/","imageUrl":"","iconUrl":"","info":"\u003cp\u003eSuydam Street Reformed Church provides canned and packaged goods, and bread and pastries are distributed on Sundays. Recipients need identification and can access food once a month.\u003c/p\u003e","latitude":40.4904931,"longitude":-74.4491898,"categories":"All Categories;Eat Well::Children \u0026 Youth;Eat Well::Adults;Eat Well::Seniors","featured":false,"featuredText":"FALSE"},{"id":18947718,"name":"George Street Co-op","address":"89 Morris Street","city":"New Brunswick","state":"NJ","zip":"08901","country":"","phone":"732-247-8280","websiteUrl":"http://georgestreetcoop.com","imageUrl":"","iconUrl":"","info":"\u003cp\u003eThe George Street Co-op is a non-profit natural foods store owned and run by its members. \u0026#160;We sell vegetarian foods with the greatest nutritional value possible, and only minimal processing or additives. \u0026#160;Everyone is welcome to shop at the Co-op and choose from our excellent selection of fresh organic produce, bulk foods, vitamins \u0026amp; herbs, body care and earth-friendly products, gifts, and more.\u003c/p\u003e","latitude":40.4917631,"longitude":-74.4449989,"categories":"All Categories;Eat Well::Children \u0026 Youth;Eat Well::Adults;Eat Well::Seniors","featured":false,"featuredText":"FALSE"},{"id":18947722,"name":"Health Way","address":"338 George Street","city":"New Brunswick","state":"NJ","zip":"08901","country":"","phone":"732-745-4880","websiteUrl":"http://www.yelp.com/biz/health-way-new-brunswick","imageUrl":"","iconUrl":"","info":"\u003cp\u003eHealth Way Market offers a wide selection of fruits, vegetables, vitamins, natural medicines and more. They also feature a juice bar, healthy food and snacks.\u003c/p\u003e","latitude":40.4939623,"longitude":-74.4440206,"categories":"All Categories;Eat Well::Children \u0026 Youth;Eat Well::Adults;Eat Well::Seniors","featured":false,"featuredText":"FALSE"},{"id":18289243,"name":"Jersey Assistance for Community Caregiving (JACC)","address":"75 Bayard St","city":"New Brunswick","state":"NJ","zip":"08901","country":"USA","phone":"732-745-3295","websiteUrl":"http://www.state.nj.us/humanservices/doas/services/jacc/","imageUrl":"","iconUrl":"","info":"\u003cp\u003eJACC is a State-funded program that provides an array of in-home services to enable an individual, at risk of placement in a nursing facility and who meets income and resource requirements and is not Medicaid eligible, to remain in his or her community home.\u003c/p\u003e","latitude":40.4943956,"longitude":-74.4463436,"categories":"All Categories;Be Well::Seniors","featured":false,"featuredText":"FALSE"},{"id":18289224,"name":"Latino Crime Watch-Unity Square","address":"81 Remsen Ave","city":"New Brunswick","state":"NJ","zip":"08901","country":"USA","phone":"732-545-0329","websiteUrl":"http://www.ccdom.org/unity-square/unity-square","imageUrl":"","iconUrl":"","info":"\u003cp\u003eUnity Square provides a place for community members and a representative from the police department meet once a month. A translator is present, making it easier for community members to express themselves.\u003c/p\u003e","latitude":40.4874713,"longitude":-74.4449129,"categories":"All Categories;Be Safe::Home Services","featured":false,"featuredText":"FALSE"},{"id":18639478,"name":"Meal Ministry - Tabernacle Baptist Church","address":"239 George Street","city":"New Brunswick","state":"NJ","zip":"08901","country":"USA","phone":"732-545-4063","websiteUrl":"https://www.facebook.com/pages/Tabernacle-Baptist-Church/115947441759705","imageUrl":"","iconUrl":"","info":"\u003cp\u003eTabernacle Baptist Church provides emergency food and a cooked meal on the second Monday of each month.\u003c/p\u003e","latitude":40.4900621,"longitude":-74.4418287,"categories":"All Categories;Eat Well::Children \u0026 Youth;Eat Well::Adults;Eat Well::Seniors","featured":false,"featuredText":"FALSE"},{"id":18289241,"name":"Meals on Wheels","address":"211 Livingston Ave","city":"New Brunswick","state":"NJ","zip":"08901","country":"USA","phone":"732-249-3488","websiteUrl":"http://mowgnb.org/","imageUrl":"","iconUrl":"","info":"\u003cp\u003eThe purpose of Meals on Wheels is to provide a nutritional hot noonday meal and a cold-boxed meal five days a week for the elderly and homebound in New Brunswick and Highland Park who have no one in the home to provide these services.\u003c/p\u003e","latitude":40.4866322,"longitude":-74.4514874,"categories":"All Categories;Eat Well::Seniors","featured":false,"featuredText":"FALSE"},{"id":18289238,"name":"Middle School Extended Day","address":"47-49 Throop Ave","city":"New Brunswick","state":"NJ","zip":"08901","country":"USA","phone":"732-247-9066","websiteUrl":"http://www.civicleague.com/#!middle-school-extended-day-program/c1bp","imageUrl":"","iconUrl":"","info":"\u003cp\u003eThe Civic League of Greater New Brunswick offers an after school program in which students have elements of science, technology, engineering, physical education, and performing and visual arts along with an academic period during which they can receive help with their homework.\u003c/p\u003e","latitude":40.4870828,"longitude":-74.4427035,"categories":"All Categories;Be Well::Children \u0026 Youth","featured":false,"featuredText":"FALSE"},{"id":18289239,"name":"Middlesex County Board of Social Services","address":"181 How Lane","city":"New Brunswick","state":"NJ","zip":"08901 08901","country":"USA","phone":"732-745-3500","websiteUrl":"http://middlesexcwa.newark.rutgers.edu/index.html","imageUrl":"","iconUrl":"","info":"\u003cp\u003eThe mission of the Middlesex County Board of Social Services is to administer Federal and State public assistance programs in a competent, compassionate and efficient manner. Our goal is to meet the needs of our clients through the prudent use of public funds.\u003c/p\u003e","latitude":40.4753897,"longitude":-74.4869142,"categories":"All Categories;Be Well::Children \u0026 Youth;Be Well::Adults;Be Well::Seniors","featured":false,"featuredText":"FALSE"},{"id":18947717,"name":"Robert Wood Johnson Fitness \u0026 Wellness Center","address":"100 Kirkpatrick St","city":"New Brunswick","state":"NJ","zip":"08901","country":"","phone":"732-873-1222","websiteUrl":"http://rwjfitnesswellness.com","imageUrl":"","iconUrl":"","info":"\u003cp\u003eRWJ Fitness \u0026amp; Wellness Center is the region’s most spectacular, professional and comprehensive fitness and wellness center. It is our goal to provide you with the proper environment, education, motivation, and professional instruction to help you achieve your fitness goals.\u003c/p\u003e","latitude":40.4951835,"longitude":-74.4473045,"categories":"All Categories;Move Well::Children \u0026 Youth;Move Well::Seniors;Move Well::Adults","featured":false,"featuredText":"FALSE"},{"id":18289245,"name":"Salvation Army","address":"287 Handy St","city":"New Brunswick","state":"NJ","zip":"08901","country":"USA","phone":"732-545-1477","websiteUrl":"http://newjersey.salvationarmy.org/NewJersey/newbrunswick","imageUrl":"","iconUrl":"","info":"\u003cp\u003eThe Salvation Army provides social service assistance (Food, Prescriptions, Utility and Rental)\u0026#160;\u003c/p\u003e","latitude":40.4896431,"longitude":-74.4512242,"categories":"All Categories;Be Well::Children \u0026 Youth;Be Well::Adults;Be Well::Seniors","featured":false,"featuredText":"FALSE"},{"id":18289242,"name":"State Health Insurance Assistance Program","address":"75 Bayard St","city":"New Brunswick","state":"NJ","zip":"08901","country":"USA","phone":"732-745-3295","websiteUrl":"http://www.co.middlesex.nj.us/Government/Departments/CS/Pages/Aging%20and%20Disabled%20Services/State-Health-Insurance-Program-SHIP.aspx","imageUrl":"","iconUrl":"","info":"\u003cp\u003eThe State Health Insurance \u0026#160;Program (SHIP) provides free help to New Jersey Medicare beneficiaries who have problems with, or questions about their health insurance.\u003c/p\u003e","latitude":40.4943956,"longitude":-74.4463436,"categories":"All Categories;Be Well::Adults;Be Well::Seniors","featured":false,"featuredText":"FALSE"},{"id":18289229,"name":"Summer Institutes","address":"47-49 Throop Ave","city":"New Brunswick","state":"NJ","zip":"08901","country":"USA","phone":"732-247-9066","websiteUrl":"http://www.civicleague.com/#!summer-institutes/c1lb8","imageUrl":"","iconUrl":"","info":"\u003cp\u003eDuring the Summer Institutes, students review and discuss national and statewide policies in a project-based curriculum filled with daily academic activities and projects.\u0026#160;\u003c/p\u003e","latitude":40.4870828,"longitude":-74.4427035,"categories":"All Categories;Be Safe::Home Services","featured":false,"featuredText":"FALSE"},{"id":18289230,"name":"The Learn to Earn Summer Program","address":"47-49 Throop Ave","city":"New Brunswick","state":"NJ","zip":"08901","country":"USA","phone":"732-247-9066","websiteUrl":"http://www.civicleague.com/#!learn-to-earn/cbpy","imageUrl":"","iconUrl":"","info":"\u003cp\u003eThe Civic League of Greater New Brunswick conducts a 29-day career-exploratory experience for middle school students.\u0026#160;\u003c/p\u003e","latitude":40.4870828,"longitude":-74.4427035,"categories":"All Categories;Be Well::Children \u0026 Youth","featured":false,"featuredText":"FALSE"},{"id":18947723,"name":"Veganized Foods","address":"9 Spring Street","city":"New Brunswick","state":"NJ","zip":"08901","country":"","phone":"732-342-7412","websiteUrl":"http://veganizedfoods.com/","imageUrl":"","iconUrl":"","info":"\u003cp\u003eEnjoy our modern interpretation of vegan cuisine.\u0026#160;Our commitment is to provide the public with delicious, healthy food.\u0026#160;We use only pure, wholesome ingredients of the highest quality.\u0026#160;100% vegan, 100% natural, 95% organic and made fresh daily.\u0026#160;We are community focused, using local, seasonal and fair trade ingredients.\u003c/p\u003e","latitude":40.4955244,"longitude":-74.4451448,"categories":"All Categories;Eat Well::Children \u0026 Youth;Eat Well::Adults;Eat Well::Seniors","featured":false,"featuredText":"FALSE"},{"id":18639479,"name":"Youth Empowerment Services","address":"270 George Street","city":"New Brunswick","state":"NJ","zip":"08901","country":"USA","phone":"732-937-9377","websiteUrl":"http://youthempowerment.us/","imageUrl":"","iconUrl":"","info":"\u003cp\u003eYouth Empowerment Services (YES) is a non-profit organization that helps children become successful, engaged adults through mentoring, tutoring, and social programs. YES’s Oasis summer camp provides breakfast and lunch to its participants, along with opportunities to learn about new foods and healthy eating. During X-Cite Nite, which occurs twice a week, children have nutritious snacks and the opportunity to relax and play in a safe environment. The organization also provides financial literacy classes to parents, where they learn the most cost- effective ways to buy and store food.\u003c/p\u003e","latitude":40.4909504,"longitude":-74.4426635,"categories":"All Categories;Move Well::Children \u0026 Youth;Eat Well::Children \u0026 Youth;Be Well::Children \u0026 Youth","featured":false,"featuredText":"FALSE"},{"id":18918140,"name":"(BMSCH) Bristol-Myers Squibb Children\u0027s Hospital 1st fl Conf. Rm","address":"1 Robert Wood Johnson Pl","city":"New Brunswick","state":"NJ","zip":"08901","country":"USA","phone":"732-235-3871","websiteUrl":"","imageUrl":"","iconUrl":"","info":"","latitude":40.495315,"longitude":-74.4498149,"categories":"Events","featured":false,"featuredText":"FALSE"},{"id":18289644,"name":"4-H Youth Development - Rutgers Cooperative","address":"42 Riva Dr","city":"North Brunswick","state":"NJ","zip":"08901","country":"USA","phone":"732-398-5261","websiteUrl":"http://nj4h.rutgers.edu/","imageUrl":"","iconUrl":"","info":"\u003cp\u003e4-H is a community of young people across America who are learning leadership, citizenship, and life skills. The New Jersey 4-H Youth Development Program offers everyone in grades K–13, the opportunity to explore countless opportunities in science, arts, foods, outdoor adventure and more.\u003c/p\u003e","latitude":40.4124657,"longitude":-74.4981803,"categories":"All Categories;Move Well::Children \u0026 Youth;Eat Well::Children \u0026 Youth","featured":false,"featuredText":"FALSE"},{"id":18639200,"name":"A Better World Café","address":"19 South 2nd Avenue","city":"Highland Park","state":"NJ","zip":"08904","country":"USA","phone":"732-249-7349","websiteUrl":"http://www.betterworldcafe.org/","imageUrl":"","iconUrl":"","info":"\u003cp\u003eBetter World Cafe is a community kitchen that envisions a world in which all eat healthy sustainable food. The cafe, located in Highland Park, allows consumers to “pay what you can”. Those who can afford to pay a little more for their meal subsidize those who choose the daily complimentary meal. Volunteers, staff, and Promise Culinary School graduates locally procure produce when possible, create tasty and nutritious seasonal menus, and compost food scraps. Proceeds are cycled back to Elijah’s Promise to provide food and resources to those in need.\u003c/p\u003e","latitude":40.4979307,"longitude":-74.4293424,"categories":"All Categories;Eat Well::Children \u0026 Youth;Eat Well::Adults;Eat Well::Seniors","featured":false,"featuredText":"FALSE"},{"id":18288827,"name":"Action Pregnancy Center, Inc.","address":"93 Bayard St, Suite B","city":"New Brunswick","state":"NJ","zip":"08901","country":"USA","phone":"732-828-1166","websiteUrl":"http://www.actionpregnancy.com/","imageUrl":"","iconUrl":"","info":"\u003cp\u003eAction Pregnancy Center has compassionate counselors to guide you through the decision process if you think you may be pregnant.\u003c/p\u003e","latitude":40.4939497,"longitude":-74.4470604,"categories":"All Categories;Feel Well::Adults;Feel Well::Children \u0026 Youth;Feel Well::Seniors","featured":false,"featuredText":"FALSE"},{"id":18289190,"name":"Adult Protective Services - Middlesex County","address":"181 How Lane","city":"New Brunswick","state":"NJ","zip":"08901","country":"USA","phone":"732-745-3635","websiteUrl":"http://middlesexcwa.newark.rutgers.edu/more-aps.html","imageUrl":"","iconUrl":"","info":"\u003cp\u003eThe Adult Protective Services (APS) Program exists to serve vulnerable adults, those adults 18 years of age and older who lack sufficient understanding or capacity to make, communicate or carry out decisions concerning their well-being and are subject to abuse, neglect, or exploitation.\u003c/p\u003e","latitude":40.4753897,"longitude":-74.4869142,"categories":"All Categories;Be Safe::Home Services","featured":false,"featuredText":"FALSE"},{"id":18947653,"name":"Alice Jennings Archibald Park","address":"15 Van Dyke Ave.","city":"New Brunswick","state":"NJ","zip":"08901","country":"","phone":"732-745-5112","websiteUrl":"http://thecityofnewbrunswick.org/parksandgardens/","imageUrl":"","iconUrl":"","info":"\u003cp\u003eOpened in 1998, Alice Jennings Archibald Park is located off Van Dyke Avenue in the City’s 4th Ward and features 10.5 acres of athletic facilities for baseball, softball, soccer, football, tennis, basketball, and handball. Courts and fields are lighted for night time play. This park also includes a playground and picnic pavilion. In 1999 City Engineer Thomas Weingartner was recognized by the New Jersey Association of Municipal Engineers for the outstanding work done to design this park.\u003c/p\u003e","latitude":40.4828362,"longitude":-74.4729171,"categories":"All Categories;Move Well::Children \u0026 Youth;Move Well::Seniors;Move Well::Adults","featured":false,"featuredText":"FALSE"},{"id":18639197,"name":"Anshe Emeth Community Development Corporation (AECDC)","address":"222 Livingston Avenue","city":"New Brunswick","state":"NJ","zip":"08901","country":"USA","phone":"732-296-9922","websiteUrl":"http://www.aecdc.org/","imageUrl":"","iconUrl":"","info":"\u003cp\u003eAnshe Emeth Community Development Corporation (AECDC) collaborates with service providers and other agencies. AECDC Food Funnel collects donated food for Elijah’s Promise Soup Kitchen and food pantries in Middlesex County and Franklin Township (Anshe Emeth Community Development Corporation).\u003c/p\u003e","latitude":40.4855153,"longitude":-74.4515591,"categories":"All Categories;Be Well::Children \u0026 Youth;Be Well::Adults","featured":false,"featuredText":"FALSE"},{"id":18639650,"name":"Better World Market","address":"1743 Route 27","city":"Somerset","state":"NJ","zip":"08873","country":"USA","phone":"732-659-6905","websiteUrl":"http://www.betterworldmarket.org","imageUrl":"","iconUrl":"","info":"\u003cp\u003eBetter World Market is a local food market that provides job training and job opportunities, connects farmers with consumers, and directs profits to Elijah’s Promise’s Community Soup Kitchen. A partnership with Suydam farms, Better World Market works with the NJ Farmers Bureau to source and sell local produce. Better World Market’s offerings include local produce, baked goods from the Better World Bakery, and products from small NJ businesses. The Community Soup Kitchen and Promise Culinary School use unsold produce in their programs minimizing waste, providing healthy food to at-risk people, and creating new opportunities. New Jersey Monthly has lauded the market for having the largest selection of Jersey-made food products they’ve seen under one roof (New Jersey Monthly, 2014).\u003c/p\u003e","latitude":40.4636488,"longitude":-74.5045736,"categories":"All Categories;Eat Well::Children \u0026 Youth;Eat Well::Adults;Eat Well::Seniors","featured":false,"featuredText":"FALSE"},{"id":18947655,"name":"Boyd Park","address":"Memorial Parkway","city":"New Brunswick","state":"NJ","zip":"08901","country":"","phone":"732-745-5112","websiteUrl":"http://thecityofnewbrunswick.org/parksandgardens/","imageUrl":"","iconUrl":"","info":"\u003cp\u003eThis 20 acre award winning park was reopened in 1999 as part of an $11 million redevelopment effort of New Brunswick’s riverfront. Boyd Park offers an alluring view of the Raritan River as well as New Brunswick’s skyline. This park has played host to many festivals and special events including the Raritan River Festival, Hispanic Festival, and the City’s 4th of July Celebration. The park also features a 3/4 long mile tow path with lights as well a historical swing bridge, canal, and locks. Extensive historical signage has been installed to help visitors learn about the rich history of the Raritan River and the City of New Brunswick.\u003c/p\u003e","latitude":40.491671,"longitude":-74.436952,"categories":"All Categories;Move Well::Children \u0026 Youth;Move Well::Seniors;Move Well::Adults","featured":false,"featuredText":"FALSE"},{"id":18947652,"name":"Buccleuch Park","address":"321 Easton Ave","city":"New Brunswick","state":"NJ","zip":"08901","country":"","phone":"732-745-5112","websiteUrl":"http://thecityofnewbrunswick.org/parksandgardens/","imageUrl":"","iconUrl":"https://s3.amazonaws.com/kanta/style/qzvAU5shg0qz8FKVLHzo7Q.png","info":"\u003cp\u003eThis park located between the Raritan River and Easton Avenue features 78 acres of rolling terrain. Buccleuch Park (pronounced (Bugle-low), is home to the Buccleuch Mansion, a former Colonial Estate. The mansion recently underwent a historical restoration and is open for tours on Sundays from 2-4 p.m. from June to October.\u003c/p\u003e","latitude":40.5042073,"longitude":-74.465145,"categories":"All Categories;Move Well::Children \u0026 Youth;Move Well::Seniors;Move Well::Adults","featured":false,"featuredText":"FALSE"},{"id":18288847,"name":"Cancer Education \u0026 Community Outreach","address":"35 Kennedy Blvd","city":"East Brunswick","state":"NJ","zip":"08901","country":"USA","phone":"732-745-3107","websiteUrl":"http://www.co.middlesex.nj.us/Government/Departments/PSH/Pages/Cancer-Education-and-Community-Outreach.aspx","imageUrl":"","iconUrl":"","info":"\u003cp\u003eThe Middlesex County Cancer Education and Early Detection (CEED) Program provides comprehensive outreach, education, and screening services for breast, cervical, colorectal and prostate cancers.\u003c/p\u003e","latitude":40.4744583,"longitude":-74.4057224,"categories":"All Categories;Be Well::Adults;Be Well::Seniors","featured":false,"featuredText":"FALSE"},{"id":18289191,"name":"Cash Assistance Adults (GA)","address":"181 How Lane","city":"New Brunswick","state":"NJ","zip":"08901","country":"USA","phone":"732-745-3500","websiteUrl":"http://middlesexcwa.newark.rutgers.edu/programs.html#program3","imageUrl":"","iconUrl":"","info":"\u003cp\u003eThe Cash Assistance Adult Program (GA) provides cash benefits, medical coverage and support services to individuals and couples with no dependent children.\u003c/p\u003e","latitude":40.4753897,"longitude":-74.4869142,"categories":"All Categories;Be Well::Adults;Be Well::Seniors","featured":false,"featuredText":"FALSE"},{"id":18289218,"name":"Cash Assistance Family/TANF","address":"181 How Lane","city":"New Brunswick","state":"NJ","zip":"08901","country":"USA","phone":"732-745-3500","websiteUrl":"http://middlesexcwa.newark.rutgers.edu/programs.html#program4","imageUrl":"","iconUrl":"","info":"\u003cp\u003eThe Cash Assistance Family (TANF) is a public assistance program designed to help families move to self-sufficiency by offering them cash payments, child care services, and transportation assistance among other services.\u003c/p\u003e","latitude":40.4753897,"longitude":-74.4869142,"categories":"All Categories;Be Well::Children \u0026 Youth;Be Well::Adults","featured":false,"featuredText":"FALSE"},{"id":18913323,"name":"Center for Ambulatory Resources (CARES) - 4TH FL Conf. Rm","address":"240 Easton Avenue","city":"New Brunswick","state":"NJ","zip":"08901","country":"USA","phone":"","websiteUrl":"http://www.saintpetershcs.com/CARES/","imageUrl":"","iconUrl":"","info":"\u003cp\u003e4th floor Conference Room\u003c/p\u003e","latitude":40.5008764,"longitude":-74.4577349,"categories":"Events","featured":false,"featuredText":"FALSE"},{"id":18639517,"name":"Chidren\u0027s Specialized Hospital","address":"200 Somerset Street","city":"New Brunswick","state":"08901","zip":"NJ","country":"USA","phone":"888-244-5373","websiteUrl":"http://www.childrens-specialized.org/","imageUrl":"","iconUrl":"","info":"\u003cp\u003eChildren’s Specialized Hospital is the nation’s leading provider of inpatient and outpatient care for children from birth to 21 years of age facing special health challenges — from chronic illnesses and complex physical disabilities like brain and spinal cord injuries, to developmental and behavioral issues like autism and mental health. At 13 different New Jersey locations, our pediatric specialists partner with families to make our many innovative therapies and medical treatments more personalized and effective...so children can achieve more of their goals.\u003c/p\u003e","latitude":40.4947962,"longitude":-74.4516342,"categories":"All Categories;Be Well::Children \u0026 Youth;Feel Well::Children \u0026 Youth","featured":false,"featuredText":"FALSE"},{"id":18289192,"name":"Children\u0027s Immunization Program","address":"181 How Lane","city":"New Brunswick","state":"NJ","zip":"08901","country":"USA","phone":"732-745-3128","websiteUrl":"http://middlesexcwa.newark.rutgers.edu/programs.html#program6","imageUrl":"","iconUrl":"","info":"\u003cp\u003eThe Children\u0027s Immunization Program is a cooperative effort between the Middlesex County Health Department and the Middlesex County Board of Social Services. The Immunization Program reviews immunization records and provides free immunizations to school age children who are residents of Middlesex County who do not have insurance coverage for shots.\u003c/p\u003e","latitude":40.4753897,"longitude":-74.4869142,"categories":"All Categories;Feel Well::Children \u0026 Youth","featured":false,"featuredText":"FALSE"},{"id":18639283,"name":"Christ Church Episcopal Food Pantry","address":"5 Paterson Street","city":"New Brunswick","state":"NJ","zip":"08901","country":"USA","phone":"732-545-6262","websiteUrl":"http://www.christchurchnewbrunswick.org/events-ministries/christ-church-food-pantry/","imageUrl":"","iconUrl":"","info":"\u003cp\u003eThe Christ Church Episcopal Food Pantry serves anyone in need of emergency food pantries.\u0026#160;\u003c/p\u003e\u003cp\u003eRegular Distribution Schedule:\u003c/p\u003e\u003cul\u003e\u003cli\u003eSecond and Third Wednesday of the month, 6:00-7:30 p.m.\u003c/li\u003e\u003cli\u003eLast two Fridays of the month, 9:00-10:30 a.m.\u003c/li\u003e\u003cli\u003eLast two Saturdays of the month, 10:30-12:00 a.m.\u003c/li\u003e\u003c/ul\u003e\u003cp\u003eTwo bags per month per household.\u003c/p\u003e","latitude":40.4955847,"longitude":-74.4423739,"categories":"All Categories;Eat Well::Children \u0026 Youth;Eat Well::Adults;Eat Well::Seniors","featured":false,"featuredText":"FALSE"},{"id":18289369,"name":"Crossroads To Success Program","address":"47-49 Throop Ave","city":"New Brunswick","state":"NJ","zip":"08901","country":"USA","phone":"732-247-9066","websiteUrl":"http://www.civicleague.com/#!crossroads-to-success/c1igk","imageUrl":"","iconUrl":"","info":"\u003cp\u003eThe Crossroads to Success Program is an extended school day, weekend and summer intervention effort to assist New Brunswick male residents 14 to 18 years old who are at the greatest risk of engaging in a myriad of behaviors that jeopardize their productive future.\u003c/p\u003e","latitude":40.4870828,"longitude":-74.4427035,"categories":"All Categories;Be Well::Children \u0026 Youth;Be Safe::Home Services","featured":false,"featuredText":"FALSE"},{"id":18288828,"name":"Damon House Inc.","address":"107 Joyce Kilmer Ave","city":"New Brunswick","state":"NJ","zip":"08903","country":"USA","phone":"732-828-3988","websiteUrl":"http://www.damonhouse.org/","imageUrl":"","iconUrl":"","info":"\u003cp\u003eDamon House is a rehabilitation program ( both outpatient \u0026amp; residential) for chemically addicted individuals.\u003c/p\u003e","latitude":40.4892001,"longitude":-74.4516292,"categories":"All Categories;Feel Well::Adults","featured":false,"featuredText":"FALSE"},{"id":18288737,"name":"Division of Vocational Rehabilitation Services","address":"506 Jersey Ave","city":"New Brunswick","state":"NJ","zip":"08901","country":"USA","phone":"732-937-6300","websiteUrl":"http://jobs4jersey.com/jobs4jersey/jobseekers/disable/index.html","imageUrl":"","iconUrl":"","info":"\u003cp\u003eThe New Jersey Division of Vocational Rehabilitation Services (DVRS) provides services that enable individuals with disabilities to find jobs or keep their existing jobs.\u003c/p\u003e","latitude":40.4793411,"longitude":-74.4677256,"categories":"All Categories;Be Well::Adults","featured":false,"featuredText":"FALSE"},{"id":18288757,"name":"Domestic Violence Liaison","address":"250 Livingston Ave","city":"New Brunswick","state":"NJ","zip":"08901","country":"USA","phone":"732-249-4900","websiteUrl":"http://womenaware.net/services/advocacy/","imageUrl":"","iconUrl":"","info":"\u003cp\u003eWomen Aware provides a liaison between their organization and Middlesex County Division of Child Protection and Permanency (DCP\u0026amp;P) offices to provide support and advocacy to their clients who have been victims of domestic violence.\u003c/p\u003e","latitude":40.4847926,"longitude":-74.4529555,"categories":"All Categories;Be Safe::Domestic Violence","featured":false,"featuredText":"FALSE"},{"id":18288769,"name":"Domestic Violence Response Teams","address":"250 Livingston Ave","city":"New Brunswick","state":"NJ","zip":"08901","country":"USA","phone":"732-249-4900","websiteUrl":"http://womenaware.net/services/advocacy/","imageUrl":"","iconUrl":"","info":"\u003cp\u003eWomen Aware provides Domestic Violence Response Team volunteers with a minimum of 40 hours of training to assist victims of domestic violence in crisis situations. Volunteers will give support and information with the goal of empowering victims to make informed decisions based on her/his options available.\u003c/p\u003e","latitude":40.4847926,"longitude":-74.4529555,"categories":"All Categories;Be Safe::Domestic Violence","featured":false,"featuredText":"FALSE"},{"id":18288830,"name":"Douglass Outreach","address":"151 Ryders Lane","city":"New Brunswick","state":"NJ","zip":"08901","country":"USA","phone":"732-932-3902","websiteUrl":"http://dddc.rutgers.edu/dddc-outreach.html","imageUrl":"","iconUrl":"","info":"\u003cp\u003eDouglass Outreach provides services using the principles of Applied Behavior Analysis to individuals with autism spectrum disorders, their families and the educational programs that support them.\u003c/p\u003e","latitude":40.4799627,"longitude":-74.4287818,"categories":"All Categories;Feel Well::Children \u0026 Youth","featured":false,"featuredText":"FALSE"},{"id":18288773,"name":"Douglass School","address":"151 Ryders Lane","city":"New Brunswick","state":"NJ","zip":"08901","country":"USA","phone":"848-932-4500","websiteUrl":"http://dddc.rutgers.edu//douglass-school.html","imageUrl":"","iconUrl":"","info":"\u003cp\u003eThe Douglass School is a public college-operated program. It offers a full-day, extended school-year and comprehensive services for learners ages 3-21 having a diagnosis of autism spectrum disorder.\u003c/p\u003e","latitude":40.4799627,"longitude":-74.4287818,"categories":"All Categories;Be Well::Children \u0026 Youth","featured":false,"featuredText":"FALSE"},{"id":18288775,"name":"English as a Second Language","address":"268 Baldwin Street","city":"New Brunswick","state":"NJ","zip":"08901","country":"USA","phone":"732-745-5300","websiteUrl":"http://www.nbpschools.net/group_profile_view.aspx?id=4aa3d35a-c6d9-4f90-a9ce-d8e89db3e974","imageUrl":"","iconUrl":"","info":"\u003cp\u003eEnglish classes for adults are offered by the New Brunswick Public Schools Adult Learning Center.\u003c/p\u003e","latitude":40.4894356,"longitude":-74.4530445,"categories":"All Categories;Be Well::Adults;Be Well::Seniors","featured":false,"featuredText":"FALSE"},{"id":18288800,"name":"English for Parents of New Brunswick Students","address":"268 Baldwin Street","city":"New Brunswick","state":"NJ","zip":"08901","country":"USA","phone":"732-745-5300","websiteUrl":"http://www.nbpschools.net/group_profile_view.aspx?id=4aa3d35a-c6d9-4f90-a9ce-d8e89db3e974","imageUrl":"","iconUrl":"","info":"\u003cp\u003eEnglish classes for parents living in New Brunswick are offered by the New Brunswick Public Schools Adult Learning Center.\u003c/p\u003e","latitude":40.4894356,"longitude":-74.4530445,"categories":"All Categories;Be Well::Adults","featured":false,"featuredText":"FALSE"},{"id":18288831,"name":"Eric B. Chandler Health Center","address":"277 George St","city":"New Brunswick","state":"NJ","zip":"08901","country":"USA","phone":"732-235-6700","websiteUrl":"http://rwjms.rutgers.edu/patient_care/chandler/","imageUrl":"","iconUrl":"","info":"\u003cp\u003eThe Eric B. Chandler Health Center is a comprehensive, family-oriented community health center, jointly operated by the Robert Wood Johnson Medical School and Eric B. Chandler Community Board, Inc.\u003c/p\u003e","latitude":40.4914662,"longitude":-74.4427532,"categories":"All Categories;Feel Well::Adults;Feel Well::Children \u0026 Youth;Feel Well::Seniors","featured":false,"featuredText":"FALSE"},{"id":18288820,"name":"Evening School for the Foreign Born","address":"268 Baldwin Street","city":"New Brunswick","state":"NJ","zip":"08901","country":"USA","phone":"732-745-5300","websiteUrl":"http://www.nbpschools.net/group_profile_view.aspx?id=4aa3d35a-c6d9-4f90-a9ce-d8e89db3e974","imageUrl":"","iconUrl":"","info":"\u003cp\u003eEducation at night for adults is offered by the New Brunswick Public Schools Adult Learning Center.\u003c/p\u003e","latitude":40.4894356,"longitude":-74.4530445,"categories":"All Categories;Be Well::Adults","featured":false,"featuredText":"FALSE"},{"id":18289222,"name":"Every Person Influences Children (EPIC)","address":"103 Church St, Suite 210","city":"New Brunswick","state":"NJ","zip":"08901","country":"USA","phone":"732-246-8060","websiteUrl":"https://www.preventchildabusenj.org/programs/","imageUrl":"","iconUrl":"","info":"\u003cp\u003eEPIC provides programs for parents, character education for families and schools, and training for schools and agencies in an effort to help raise children to become responsible adults.\u003c/p\u003e","latitude":40.4963429,"longitude":-74.4433422,"categories":"All Categories;Be Well::Adults","featured":false,"featuredText":"FALSE"},{"id":18947711,"name":"Feaster Park","address":"Throop Ave and Hale St.","city":"New Brunswick","state":"NJ","zip":"08901","country":"","phone":"732-745-5112","websiteUrl":"http://thecityofnewbrunswick.org/parksandgardens/","imageUrl":"","iconUrl":"","info":"\u003cp\u003eThe New Brunswick Parks system features 272 beautiful acres of parks, playgrounds, passive areas, athletic fields, facilities, lawns, and gardens. Many of our parks can be reserved for special events by contacting the Administration Department at (732) 745-5007.\u003c/p\u003e","latitude":40.4842374,"longitude":-74.4456488,"categories":"All Categories;Move Well::Children \u0026 Youth;Move Well::Seniors;Move Well::Adults","featured":false,"featuredText":"FALSE"},{"id":18947686,"name":"Memorial Stadium","address":"12th St. and Joyce Kilmer Ave","city":"New Brunswick","state":"NJ","zip":"08901","country":"","phone":"732-745-5112","websiteUrl":"http://thecityofnewbrunswick.org/parksandgardens/","imageUrl":"","iconUrl":"","info":"\u003cp\u003eRecognized by the New Jersey Society of Municipal Engineers as the Municipal Project of the year in 2001, this 15-acre park is located adjacent to New Brunswick Middle School and is home to many sporting events for youth and adults. The facility boasts a football/soccer stadium that seats 5,000 people, a practice football/soccer field, baseball field, softball field, tennis courts, locker rooms, and concession stands. In 2014, the City of New Brunswick will fund the replacement of a grass field at Memorial Stadium with a synthetic turf field. This project site will be funded with CDBG money to meet local demand for improved access to recreational facilities.\u003c/p\u003e","latitude":40.4721101,"longitude":-74.4693444,"categories":"All Categories;Move Well::Children \u0026 Youth;Move Well::Seniors;Move Well::Adults","featured":false,"featuredText":"FALSE"},{"id":18288860,"name":"New Jersey Blood Services","address":"167 New St","city":"New Brunswick","state":"NJ","zip":"08901","country":"USA","phone":"732-220-7000","websiteUrl":"http://nybloodcenter.org/","imageUrl":"","iconUrl":"","info":"\u003cp\u003eNew Jersey Blood Services is a branch of New York Blood Center, an organization that provides blood products to health organizations and also serves as a blood donor ceter for those wishing to donate blood\u003c/p\u003e","latitude":40.492901,"longitude":-74.4472647,"categories":"All Categories;Be Well::Adults","featured":false,"featuredText":"FALSE"},{"id":18947629,"name":"Shiloh Community Garden","address":"26-36 Tabernacle Way","city":"New Brunswick","state":"NJ","zip":"08901","country":"","phone":"732-545-9002","websiteUrl":"http://www.elijahspromise.org/what-we-do/community-gardens/","imageUrl":"","iconUrl":"","info":"\u003cp\u003eShiloh Community Garden has provided New Brunswick residents with the space and educational resources to grow food since 2010. The program shares the best cost-effective practices for growing in home gardens and increases access to fresh food for low-income residents. For $15, residents lease a raised garden bed for a growing season. Group work days and specialized workshops assist amateur gardeners to ensure their success. Elijah’s Promise staff co-manage the Community Garden Coalition, a working group of the New Brunswick Community Food Alliance, which leads the city’s urban agriculture and community gardening activities. A partnership between Elijah’s Promise and the Rutgers School of Environmental and Biological Sciences led to the creation of a 35 tree apple orchard at the garden in 2013 (Rutgers School of Environmental and Biological Sciences AES Newsroom, 2013).\u003c/p\u003e","latitude":40.4904071,"longitude":-74.4410146,"categories":"All Categories;Eat Well::Adults;Eat Well::Seniors","featured":false,"featuredText":"FALSE"},{"id":18288735,"name":"WorkForce 55+","address":"550 Jersey Ave","city":"New Brunswick","state":"NJ","zip":"08901","country":"USA","phone":"732-937-6200","websiteUrl":"http://jobs4jersey.com/jobs4jersey/jobseekers/older/","imageUrl":"","iconUrl":"","info":"\u003cp\u003eWorkForce 55+ is a federally funded program that offers economically disadvantaged seniors, 55 years of age and older, jobs and training. The aim of WorkForce 55+ is to help seniors return to the work place through a program in which you earn while you learn.\u003c/p\u003e","latitude":40.4792327,"longitude":-74.4676982,"categories":"All Categories;Be Well::Seniors","featured":false,"featuredText":"FALSE"},{"id":18288802,"name":"Work First NJ - AWEP Alternative Work Experience Program","address":"268 Baldwin Street","city":"New Brunswick","state":"NJ","zip":"08901","country":"USA","phone":"732-745-5300","websiteUrl":"http://www.nbpschools.net/group_profile_view.aspx?id=4aa3d35a-c6d9-4f90-a9ce-d8e89db3e974","imageUrl":"","iconUrl":"","info":"\u003cp\u003eThe Work First NJ program helps individuals who can\u0027t find unsubsidized employment to acquire general skills and training for employment.\u003c/p\u003e","latitude":40.4894356,"longitude":-74.4530445,"categories":"All Categories;Be Well::Adults","featured":false,"featuredText":"FALSE"},{"id":18639196,"name":"Women Infant Children (WIC)","address":"123 How Lane","city":"New Brunswick","state":"NJ","zip":"08901","country":"USA","phone":"732-249-3513","websiteUrl":"http://www.state.nj.us/health/fhs/wic/localagencies.shtml","imageUrl":"","iconUrl":"","info":"\u003cp\u003eWomen, Infant, and Children (WIC) is a federally funded program that provides assistance for women, infants and children. The WIC program for Middlesex and Monmouth County is under Visiting Nurse Association Health Group, which is a non-profit organization dedicated to the promotion, restoration and maintenance of the health status of individuals and the community. The aim of the WIC program is to help decrease the risk of poor birth outcomes and to improve the health of infants and children during critical times of growth and development, through the distribution of vouchers for supplemental nutritious foods, coupled with access to nutrition education, and appropriate referrals to other health or social services.\u003c/p\u003e","latitude":40.4713601,"longitude":-74.4830174,"categories":"All Categories;Eat Well::Children \u0026 Youth;Be Well::Children \u0026 Youth;Be Well::Adults","featured":false,"featuredText":"FALSE"},{"id":18288771,"name":"Women Helping Women","address":"152 Frelinghuysen Rd, Piscataway","city":"New Brunswick","state":"NJ","zip":"08901","country":"USA","phone":"848-445-6111","websiteUrl":"http://www.whwnj.com/services.html","imageUrl":"","iconUrl":"","info":"\u003cp\u003eWHW is dedicated to providing affordable counseling services to women, young girls and teens struggling with issues related to domestic violence, sexual abuse, divorce, depression, loss, self-esteem, peer pressure, relationships and addiction.\u003c/p\u003e","latitude":40.5228524,"longitude":-74.4666383,"categories":"All Categories;Feel Well::Adults;Feel Well::Children \u0026 Youth;Feel Well::Seniors","featured":false,"featuredText":"FALSE"},{"id":18288745,"name":"Women Aware: PALS Program","address":"250 Livingston Ave","city":"New Brunswick","state":"NJ","zip":"08901","country":"USA","phone":"732-249-4900","websiteUrl":"http://womenaware.net/services/counseling/","imageUrl":"","iconUrl":"","info":"\u003cp\u003eThe PALS (Peace: a Learned Solution) Program at Women Aware offers counseling for children (ages 3-12) and supportive services to families who have been victimized by domestic violence and abuse.\u003c/p\u003e","latitude":40.4847926,"longitude":-74.4529555,"categories":"All Categories;Be Safe::Home Services","featured":false,"featuredText":"FALSE"},{"id":18288738,"name":"Women Aware: Hotline","address":"250 Livingston Ave","city":"New Brunswick","state":"NJ","zip":"08901","country":"USA","phone":"732-249-4504","websiteUrl":"http://womenaware.net/services/counseling/","imageUrl":"","iconUrl":"","info":"\u003cp\u003eWomen Aware provides comprehensive services to victims of domestic violence. Their hotline is available 24 hours a day, 365 days a year for crisis counseling and resource and referral information.\u003c/p\u003e","latitude":40.4847926,"longitude":-74.4529555,"categories":"All Categories;Be Safe::Home Services","featured":false,"featuredText":"FALSE"},{"id":18639516,"name":"Unity Square","address":"81 Remsen Avenue","city":"New Brunswick","state":"NJ","zip":"08901","country":"USA","phone":"732-545-0329","websiteUrl":"http://www.ccdom.org/USQ","imageUrl":"","iconUrl":"","info":"\u003cp\u003eUnity Square is a community organizing and social justice initiative of Catholic Charities, Diocese of Metuchen that works to empower community members and catalyze change in the poorest residential neighborhood of New Brunswick, NJ. In so doing, Unity Square addresses a diverse set of issues, including economic development, employment, civic participation, crime and safety, immigrants’ rights, and tenants’ rights. Led by community leaders, Unity Square works closely with partner organizations, city officials, and other stakeholders to achieve its goals. Among its accomplishments are New Brunswick’s only bilingual Crime Watch group; the passage a first-of-its-kind city ordinance aimed at preventing wage theft; the hosting of a bilingual candidate forum for the New Brunswick School Board elections; the maintenance of a growing system of community gardens; and education and outreach to over 2,000 residents on tenant rights issues.\u003c/p\u003e","latitude":40.4874714,"longitude":-74.4449131,"categories":"All Categories;Be Well::Children \u0026 Youth;Be Well::Adults;Be Well::Seniors;Be Safe::Home Services","featured":false,"featuredText":"FALSE"},{"id":18288861,"name":"The Stacy Goldstein Breast Cancer Center at The Cancer Institute of New Jersey","address":"195 Little Albany St","city":"New Brunswick","state":"NJ","zip":"08901","country":"USA","phone":"732-235-2465","websiteUrl":"http://umg.rwjms.rutgers.edu/Public/clinical_services/program.asp?dept=cinj\u0026program=bop","imageUrl":"","iconUrl":"","info":"\u003cp\u003eThe Stacy Goldstein Breast Cancer Center provides comprehensive care for people with breast cancer. The Cancer Institute\u0027s breast cancer team includes nurse practitioners, medical oncologists, surgical oncologists, radiation oncologists, breast radiologists, plastic and reconstructive surgeons, pathologists, social workers, and clinical psychologists.\u003c/p\u003e","latitude":40.4965303,"longitude":-74.4485775,"categories":"All Categories;Feel Well::Adults;Feel Well::Seniors","featured":false,"featuredText":"FALSE"},{"id":18289648,"name":"The Gifted Child Clinic","address":"89 French St","city":"New Brunswick","state":"NJ","zip":"08901","country":"USA","phone":"732-235-7700","websiteUrl":"http://umg.umdnj.edu/public/clinical_services/program.asp?dept=pediatrics\u0026program=instdev/tgcc","imageUrl":"","iconUrl":"","info":"\u003cp\u003eThe Gifted Child Clinic serves as a referral agency for children who are thought to be gifted or talented. Children between three and twelve years of age are referred by parents, pediatricians and educators.\u003c/p\u003e","latitude":40.4942214,"longitude":-74.4510588,"categories":"All Categories;Be Well::Children \u0026 Youth","featured":false,"featuredText":"FALSE"},{"id":18289223,"name":"Tenant\u0027s Rights - Unity Square","address":"81 Remsen Ave","city":"New Brunswick","state":"NJ","zip":"08901","country":"USA","phone":"732-545-0329","websiteUrl":"http://www.ccdom.org/unity-square/unity-square","imageUrl":"","iconUrl":"","info":"\u003cp\u003eUnity Square offers assistance with issues with landlords and provide basic information about tenant\u0027s rights and responsibilities. They also help residents fill out paperwork or file a complaint.\u003c/p\u003e","latitude":40.4874713,"longitude":-74.4449129,"categories":"All Categories;Be Safe::Home Services","featured":false,"featuredText":"FALSE"},{"id":18289371,"name":"Summer Theatre Academy","address":"9 Livingston Ave","city":"New Brunswick","state":"NJ","zip":"08901","country":"USA","phone":"732-846-2895","websiteUrl":"http://www.georgestreetplayhouse.org/theatreclass/summertheatreacademy","imageUrl":"","iconUrl":"","info":"\u003cp\u003eThe Summer Theatre Academy is an all-day theatre camp for youth and teens.\u0026#160;\u003c/p\u003e","latitude":40.4935266,"longitude":-74.4444496,"categories":"All Categories;Move Well::Children \u0026 Youth","featured":false,"featuredText":"FALSE"},{"id":19282140,"name":"St. Matthias","address":"168 John F. Kennedy Boulevard","city":"Somerset","state":"NJ","zip":"08873","country":"USA","phone":"","websiteUrl":"","imageUrl":"","iconUrl":"","info":"","latitude":40.5001187,"longitude":-74.5033655,"categories":"Events","featured":false,"featuredText":"FALSE"},{"id":18288853,"name":"Special Child Health Services","address":"35 Kennedy Blvd","city":"East Brunswick","state":"NJ","zip":"08901","country":"USA","phone":"732-745-3100","websiteUrl":"http://www.co.middlesex.nj.us/Government/Departments/PSH/Pages/Special-Child-Health-Services-Case-Management-Unit.aspx","imageUrl":"","iconUrl":"","info":"\u003cp\u003eThe Middlesex County Special Child Health Services (SCHS) program provides comprehensive Case Management for special needs children from birth to the 22nd birthday, who may have a disease, disorder or condition that may interfere with normal growth or development.\u0026#160;\u003c/p\u003e","latitude":40.4744583,"longitude":-74.4057224,"categories":"All Categories;Be Well::Children \u0026 Youth","featured":false,"featuredText":"FALSE"},{"id":18639518,"name":"Saint Peter\u0027s University Hospital","address":"254 Easton Ave","city":"New Brunswick","state":"NJ","zip":"08901","country":"USA","phone":"732-745-8600","websiteUrl":"http://www.saintpetershcs.com/","imageUrl":"","iconUrl":"","info":"\u003cp\u003eSaint Peter\u0027s Healthcare System was formed in 2007 and reflects the expansive scope of health and wellness services we offer to our community. Besides Saint Peter\u0027s University Hospital, the system includes the Saint Peter\u0027s Foundation and the Saint Peter\u0027s Health and Management Services Corporation, which oversees various initiatives, including the Margaret McLaughlin McCarrick Care Center, our nursing home in Somerset; the CARES Surgicenter, an ambulatory surgery center adjacent to the hospital in New Brunswick; our Adult Day Center in Monroe; and our Family Health Center in New Brunswick that serves, among others, juvenile victims of sexual abuse, economically disadvantaged families and mentally disabled and/or violence-prone youth. Our services are offered to all. We are a Catholic institution with a capital \"C\" and a small \"c.\" We draw inspiration from our religious heritage. Our care for others is universal, extending to those of other faiths and in some cases, of no faith whatsoever. Without question, the fact that ours is a faith-based healthcare delivery system is of primary significance. At Saint Peter\u0027s Healthcare System, you will find leading-edge technology and an experienced staff. You will also find the trust and compassion that we have always been known for. This is our legacy—our very sacred ministry.\u003c/p\u003e","latitude":40.5014908,"longitude":-74.459056,"categories":"All Categories;Feel Well::Adults;Feel Well::Children \u0026 Youth;Feel Well::Seniors","featured":false,"featuredText":"FALSE"},{"id":18288838,"name":"Ryan White Program","address":"75 Bayard Street, 5th","city":"New Brunswick","state":"NJ","zip":"08901","country":"USA","phone":"732-745-3149","websiteUrl":"http://socialwork.rutgers.edu/instituteforfamilies/ResearchandEvaluation/RyanWhiteProject.aspx","imageUrl":"","iconUrl":"","info":"\u003cp\u003eAccess point for HIV health and support services\u0026#160;\u003c/p\u003e","latitude":40.4862157,"longitude":-74.4518188,"categories":"All Categories;Be Well::Children \u0026 Youth;Be Well::Adults;Be Well::Seniors","featured":false,"featuredText":"FALSE"},{"id":18918142,"name":"RWJ Fitness \u0026 Wellness Center - Community Ed. Room","address":"100 Kirkpatrick St.","city":"New Brunswick","state":"NJ","zip":"08901","country":"USA","phone":"","websiteUrl":"","imageUrl":"","iconUrl":"","info":"\u003cp\u003e#201\u003c/p\u003e","latitude":40.4951835,"longitude":-74.4473045,"categories":"Events","featured":false,"featuredText":"FALSE"},{"id":18288849,"name":"Public Health Clinic","address":"596 Jersey Ave, Suite B","city":"East Brunswick","state":"NJ","zip":"08901","country":"USA","phone":"732-565-3788","websiteUrl":"http://www.co.middlesex.nj.us/Government/Departments/PSH/Pages/Middlesex-County-Public-Health-Clinic.aspx","imageUrl":"","iconUrl":"","info":"\u003cp\u003eThe Public Health clinic provides a variety of services including STD/STI screening, evaluation, treatment, follow-up, and referral; HIV counseling and testing; Well Baby Clinic/Immunization Clinic; and Adult Immunization Clinic.\u003c/p\u003e","latitude":40.4760933,"longitude":-74.471809,"categories":"All Categories;Feel Well::Adults;Feel Well::Children \u0026 Youth;Feel Well::Seniors","featured":false,"featuredText":"FALSE"},{"id":18639519,"name":"Promise Clinic - HIP HOP","address":"277 George St","city":"New Brunswick","state":"NJ","zip":"08901","country":"USA","phone":"732-406-9131","websiteUrl":"http://rwjms3.rwjms.rutgers.edu/promise_clinic","imageUrl":"","iconUrl":"","info":"\u003cp\u003eThe Promise Clinic is a community of medical students, volunteer physicians, and community partners dedicated to providing patient-centered, quality primary care services; as well educating and empowering the clients of Elijah’s Promise Soup Kitchen and the uninsured citizens of New Brunswick, NJ to live healthier lives. Promise Clinic also serves as an environment where medical students and other health professionals can engage in the New Brunswick community through service-learning aimed at teaching the importance of continuity of care, teamwork, advocacy, innovation, and leadership.\u003c/p\u003e","latitude":40.4914662,"longitude":-74.4427532,"categories":"All Categories;Feel Well::Adults;Feel Well::Seniors","featured":false,"featuredText":"FALSE"},{"id":18288825,"name":"Prevent Child Abuse New Jersey","address":"103 Church St, Suite 210","city":"New Brunswick","state":"NJ","zip":"08901","country":"USa","phone":"732-246-8060","websiteUrl":"https://www.preventchildabusenj.org/homevisiting/parents-teachers/","imageUrl":"","iconUrl":"","info":"\u003cp\u003ePrevent Child Abuse New Jersey is the state office for both Healthy Families New Jersey (HF-TIP NJ) and Parents as Teachers New Jersey (PAT-NJ). These two home visiting programs are designed to teach new parents how to form healthy bonds with their babies, to interact in developmentally appropriate ways.\u003c/p\u003e","latitude":40.4963429,"longitude":-74.4433422,"categories":"All Categories;Be Well::Children \u0026 Youth;Be Well::Adults","featured":false,"featuredText":"FALSE"},{"id":18288863,"name":"Pharmaceutical Assistance for the Aged \u0026 Disabled","address":"PO Box 715","city":"New Brunswick","state":"NJ","zip":"08901","country":"USA","phone":"800-792-9745","websiteUrl":"http://www.state.nj.us/humanservices/doas/services/paad/","imageUrl":"","iconUrl":"","info":"\u003cp\u003eThe Pharmaceutical Assistance to the Aged \u0026amp; Disabled (PAAD) is a state program for low-income New Jersey residents ages 65 and older or 18 and older that offers prescription assistance.\u003c/p\u003e","latitude":40.4862157,"longitude":-74.4518188,"categories":"All Categories;Be Well::Seniors","featured":false,"featuredText":"FALSE"},{"id":18288851,"name":"Pediatric Immunization Clinic","address":"596 Jersey Ave, Suite B","city":"New Brunswick","state":"NJ","zip":"08901","country":"USA","phone":"732-745-3100","websiteUrl":"http://www.co.middlesex.nj.us/Government/Departments/PSH/Pages/Pediatric-%28Child%29-Health-Program.aspx","imageUrl":"","iconUrl":"","info":"\u003cp\u003eThe Pediatric (Child) Health Program provides preventive health care and education for infants and children in the community and oversees the immunization records of children attending daycare and schools.\u003c/p\u003e","latitude":40.4760933,"longitude":-74.471809,"categories":"All Categories;Feel Well::Children \u0026 Youth","featured":false,"featuredText":"FALSE"},{"id":18289642,"name":"Parent Infant Care Center","address":"1000 Somerset Street","city":"New Brunswick","state":"NJ","zip":"08901","country":"USA","phone":"732-745-5300","websiteUrl":"https://prab.org/programs-services/youth/","imageUrl":"","iconUrl":"","info":"\u003cp\u003eThe Parent Infant Care Center (PIC-C), a partnership between PRAB, New Brunswick Tomorrow and the New Brunswick Board of Education, provides on-site day care, case management and counseling services for teen mothers attending New Brunswick High School and their child.\u003c/p\u003e","latitude":40.4806345,"longitude":-74.4816667,"categories":"All Categories;Be Well::Children \u0026 Youth;Be Well::Adults","featured":false,"featuredText":"FALSE"},{"id":18289647,"name":"NJ Youth Corps of Middlesex County","address":"268 Baldwin Street","city":"New Brunswick","state":"NJ","zip":"08901","country":"USA","phone":"732-745-5300","websiteUrl":"http://www.nbpschools.net/groups/adult-learning-center","imageUrl":"","iconUrl":"","info":"\u003cp\u003eThe New Jersey Youth Corps of Middlesex County teaches young adults vocational and employment skills.\u003c/p\u003e","latitude":40.4894356,"longitude":-74.4530445,"categories":"All Categories;Be Well::Children \u0026 Youth","featured":false,"featuredText":"FALSE"},{"id":18288734,"name":"New Jersey Unemployment Insurance Benefit Claim","address":"550 Jersey Ave","city":"New Brunswick","state":"NJ","zip":"08901","country":"USA","phone":"732-761-2020","websiteUrl":"http://lwd.dol.state.nj.us/labor/ui/ui_index.html","imageUrl":"","iconUrl":"","info":"\u003cp\u003eThe Department of Labor and Workforce Development provides links to the unemployment insurance online self-service application and answer questions regarding the matter.\u003c/p\u003e","latitude":40.4792327,"longitude":-74.4676982,"categories":"All Categories;Be Well::Adults","featured":false,"featuredText":"FALSE"},{"id":18288844,"name":"New Jersey Division of Disability Services","address":"11A Quakerbridge Plaza","city":"Mercerville","state":"NJ","zip":"08901","country":"USA","phone":"888-285-3036","websiteUrl":"http://www.nj.gov/humanservices/dds/home/","imageUrl":"","iconUrl":"","info":"\u003cp\u003eThe Division of Disability Services (DDS) focuses on serving people who have become disabled as adults, whether through illness or injury. The Division serves as a single point of entry for people with disabilities who need information and/or services within the human services system.\u003c/p\u003e","latitude":40.2540773,"longitude":-74.6823581,"categories":"All Categories;Be Well::Children \u0026 Youth;Be Well::Adults;Be Well::Seniors","featured":false,"featuredText":"FALSE"},{"id":18288855,"name":"New Hope Foundation","address":"2-4 Kirkpatrick St","city":"New Brunswick","state":"NJ","zip":"08901","country":"USA","phone":"732-246-4800","websiteUrl":"http://www.newhopefoundation.org/","imageUrl":"","iconUrl":"","info":"\u003cp\u003eNew Hope Foundation is dedicated to the treatment of adults and adolescents affected with alcohol, drug, and gambling addiction.\u003c/p\u003e","latitude":40.492823,"longitude":-74.4465008,"categories":"All Categories;Feel Well::Adults;Feel Well::Children \u0026 Youth;Feel Well::Seniors","featured":false,"featuredText":"FALSE"},{"id":18289643,"name":"New Brunswick School Based Youth Services","address":"90 Jersey Ave","city":"New Brunswick","state":"NJ","zip":"08901","country":"USA","phone":"732-828-4510","websiteUrl":"https://prab.org/programs-services/youth/","imageUrl":"","iconUrl":"","info":"\u003cp\u003eLocated at the High School, Middle School and 4 Elementary schools in New Brunswick, Puerto Rican Action Board staff provide individual, group counseling, case management, job placement, and recreation activities.\u003c/p\u003e","latitude":40.488426,"longitude":-74.4575229,"categories":"All Categories;Be Well::Children \u0026 Youth;Feel Well::Children \u0026 Youth","featured":false,"featuredText":"FALSE"},{"id":18288824,"name":"New Brunswick Public Schools Adult Learning Center","address":"268 Baldwin Street","city":"New Brunswick","state":"NJ","zip":"08901","country":"USA","phone":"732-745-5300","websiteUrl":"http://www.nbpschools.net/group_profile_view.aspx?id=4aa3d35a-c6d9-4f90-a9ce-d8e89db3e974","imageUrl":"","iconUrl":"","info":"\u003cp\u003eThe New Brunswick Public Schools Adult Learning Center offers services and classes for adults.\u003c/p\u003e","latitude":40.4894356,"longitude":-74.4530445,"categories":"All Categories;Be Well::Adults","featured":false,"featuredText":"FALSE"},{"id":18289373,"name":"New Brunswick Hub Teen Center","address":"411 Joyce Kilmer Ave","city":"New Brunswick","state":"NJ","zip":"08901","country":"USA","phone":"732-745-5170","websiteUrl":"http://www.nbrec.com/hubteencenter.html","imageUrl":"","iconUrl":"","info":"\u003cp\u003eThe Hub Teen Recreation Center is a state of the art facility for teens ages 13 to 19. It consists of a batting cage, golf range, game room, movie theater, computer lab, sound studio, fitness center, cafe, multipurpose rooms, and meeting rooms. \u0026#160;\u003c/p\u003e","latitude":40.48308,"longitude":-74.4593104,"categories":"All Categories;Move Well::Children \u0026 Youth","featured":false,"featuredText":"FALSE"},{"id":18288834,"name":"New Brunswick Health Department","address":"78 Bayard St","city":"New Brunswick","state":"NJ","zip":"08901","country":"USA","phone":"732-745-5021","websiteUrl":"http://thecityofnewbrunswick.org/social-services/","imageUrl":"","iconUrl":"","info":"\u003cp\u003eIn conjunction with the Middlesex County Health Department, The Division of Health provides immunizations, health screening sessions and health education programs throughout New Brunswick.\u003c/p\u003e","latitude":40.4939069,"longitude":-74.4456473,"categories":"All Categories;Feel Well::Adults;Feel Well::Children \u0026 Youth;Feel Well::Seniors","featured":false,"featuredText":"FALSE"},{"id":18947714,"name":"Murphy Park","address":"Murphy Park","city":"New Brunswick","state":"NJ","zip":"08901","country":"","phone":"732-745-5112","websiteUrl":"http://thecityofnewbrunswick.org/parksandgardens/","imageUrl":"","iconUrl":"","info":"\u003cp\u003eThe New Brunswick Parks system features 272 beautiful acres of parks, playgrounds, passive areas, athletic fields, facilities, lawns, and gardens. Many of our parks can be reserved for special events by contacting the Administration Department at (732) 745-5007.\u003c/p\u003e","latitude":40.485623,"longitude":-74.4075421,"categories":"All Categories;Move Well::Children \u0026 Youth;Move Well::Seniors;Move Well::Adults","featured":false,"featuredText":"FALSE"},{"id":18289651,"name":"Middlesex County Senior Nutrition Services","address":"2963 Woodbridge Ave","city":"New Brunswick","state":"NJ","zip":"08901","country":"USA","phone":"732-745 - 3295","websiteUrl":"http://www.co.middlesex.nj.us/Government/Departments/CS/Pages/Aging%20and%20Disabled%20Services/Nutrition-Services.aspx","imageUrl":"","iconUrl":"","info":"\u003cp\u003eNutrition programs for Middlesex County senior residents such as: providng Ensure for seniors with dietary issues, vouchers to buy food at local farmer\u0027s markets, a senior meal plan, and home delievered meals.\u003c/p\u003e","latitude":40.4973777,"longitude":-74.4589396,"categories":"All Categories;Eat Well::Seniors","featured":false,"featuredText":"FALSE"},{"id":18288840,"name":"Middlesex County Office of Human Services","address":"75 Bayard St, 5th floor","city":"New Brunswick","state":"NJ","zip":"08901","country":"USA","phone":"732-745-4186","websiteUrl":"http://www.co.middlesex.nj.us/Government/Departments/CS/Pages/Human%20Services/Human-Services.aspx","imageUrl":"","iconUrl":"","info":"\u003cp\u003eThe Office of Human Services is responsible for providing coordination and referrals for social services \u0026#160;for Middlesex County residents.\u003c/p\u003e","latitude":40.4943956,"longitude":-74.4463436,"categories":"All Categories;Be Well::Children \u0026 Youth;Be Well::Adults;Be Well::Seniors","featured":false,"featuredText":"FALSE"},{"id":18288837,"name":"Middlesex County Office of Aging \u0026 Disabiltiy Services","address":"75 Bayard St, 5th floor","city":"New Brunswick","state":"NJ","zip":"08901","country":"USA","phone":"877-222-3737","websiteUrl":"http://www.co.middlesex.nj.us/Government/Departments/CS/Documents/Aging/MCMAP%20BROCHURE.pdf","imageUrl":"","iconUrl":"","info":"\u003cp\u003eThe Middlesex County Office of Aging \u0026amp; Disabiltiy Services provides assistance\u0026#160;for the homebound frail/elderly and disabled adults age 18-64 in \u0026#160;need of services such as prescritpion assistance, home care/ adult day care, home devilvered meals and durable medical supplies/equipment.\u003c/p\u003e","latitude":40.4943956,"longitude":-74.4463436,"categories":"All Categories;Be Well::Adults;Be Well::Seniors","featured":false,"featuredText":"FALSE"},{"id":18289645,"name":"Middlesex County Multi Assistance Program","address":"75 Bayard St, Fl 5","city":"New Brunswick","state":"NJ","zip":"08901","country":"USA","phone":"732-745-3295","websiteUrl":"http://www.co.middlesex.nj.us/Government/Departments/CS/Pages/Aging%20and%20Disabled%20Services/Home-Care-Services.aspx","imageUrl":"","iconUrl":"","info":"\u003cp\u003eThe Middlesex County Multi Assistance Program, administered by the Middlesex County Office of Aging \u0026amp; Disabled Services, provides assistance for homebound, frail, elderly, and disabled adults ages 18-64 in need of services to help them remain safely in the community.\u003c/p\u003e","latitude":40.4943956,"longitude":-74.4463436,"categories":"All Categories;Be Well::Seniors","featured":false,"featuredText":"FALSE"},{"id":18288841,"name":"Middlesex County Division of Mental Health and Addiction Services","address":"181 How Lane","city":"New Brunswick","state":"NJ","zip":"08901","country":"USA","phone":"800-382-6717","websiteUrl":"http://www.state.nj.us/humanservices/dmhas/home/","imageUrl":"","iconUrl":"","info":"\u003cp\u003eThe Division of Mental Health and Addiction Services is the state mental health authority (SMHA) and the Single State Authority on Substance Abuse (SSA) that plans, monitors, evaluates and regulates New Jersey\u0027s mental health and substance abuse prevention, early intervention, treatment and recovery efforts.\u0026#160;\u003c/p\u003e","latitude":40.4753897,"longitude":-74.4869142,"categories":"All Categories;Be Well::Children \u0026 Youth;Be Well::Adults;Be Well::Seniors","featured":false,"featuredText":"FALSE"},{"id":18288846,"name":"Middlesex County Adult Health","address":"35 Kennedy Blvd","city":"East Brunswick","state":"NJ","zip":"08901","country":"USA","phone":"732-745-3100","websiteUrl":"http://www.co.middlesex.nj.us/Government/Departments/PSH/Pages/Adult-Health.aspx","imageUrl":"","iconUrl":"","info":"\u003cp\u003eThe Adult Health Division offers a variety of health education and prevention activities for county residents in collaboration with local agencies for the purpose of chronic disease management and seasonal illness prevention such as blood pressure screening, flu vaccines, and health education and counseling.\u003c/p\u003e","latitude":40.4744583,"longitude":-74.4057224,"categories":"All Categories;Be Well::Adults;Be Well::Seniors","featured":false,"featuredText":"FALSE"},{"id":18289220,"name":"Medical Assitance Programs","address":"181 How Lane","city":"New Brunswick","state":"NJ","zip":"08901","country":"USA","phone":"732-745-3500","websiteUrl":"http://middlesexcwa.newark.rutgers.edu/programs.html#program10","imageUrl":"","iconUrl":"","info":"\u003cp\u003eThe Medical Assitance Programs for Middlesex County residents include:Medicaid, the Assisted Living Program, the Community Carte Program for the Elderly \u0026amp; Disabled, and the AIDS Community Alternative Program\u003c/p\u003e","latitude":40.4753897,"longitude":-74.4869142,"categories":"Be Well::Children \u0026 Youth;Be Well::Adults;Be Well::Seniors","featured":false,"featuredText":"FALSE"},{"id":18288836,"name":"Manavi","address":"390 George St.","city":"New Brunswick","state":"NJ","zip":"08901","country":"USA","phone":"732-435-1414","websiteUrl":"http://manavi.org/home/direct-services/support-groups/","imageUrl":"","iconUrl":"","info":"\u003cp\u003eManavi provides supportive counseling and support groups for South Asian women who are victims of violence.\u0026#160;\u003c/p\u003e","latitude":40.4961,"longitude":-74.4444505,"categories":"All Categories;Feel Well::Adults","featured":false,"featuredText":"FALSE"},{"id":18288801,"name":"Literacy/Pre-Diploma Basic Skills","address":"268 Baldwin Street","city":"New Brunswick","state":"NJ","zip":"08901","country":"USA","phone":"732-745-5300","websiteUrl":"http://www.nbpschools.net/group_profile_view.aspx?id=4aa3d35a-c6d9-4f90-a9ce-d8e89db3e974","imageUrl":"","iconUrl":"","info":"\u003cp\u003eLiteracy classes for adults are offered by the New Brunswick Public Schools Adult Learning Center.\u003c/p\u003e","latitude":40.4894356,"longitude":-74.4530445,"categories":"All Categories;Be Well::Adults","featured":false,"featuredText":"FALSE"},{"id":18288848,"name":"Lead Poisoning Prevention \u0026 Case Management","address":"35 Kennedy Blvd","city":"New Brunswick","state":"NJ","zip":"08901","country":"USA","phone":"732-745-3100","websiteUrl":"http://www.co.middlesex.nj.us/Government/Departments/PSH/Pages/Lead.aspx","imageUrl":"","iconUrl":"","info":"\u003cp\u003eThis program provides a number of services to prevent lead poisoning including screening for children 9 months to 6 years old, case management, environmental interventions, and education.\u003c/p\u003e","latitude":40.4744583,"longitude":-74.4057224,"categories":"All Categories;Be Well::Children \u0026 Youth","featured":false,"featuredText":"FALSE"},{"id":18947715,"name":"Joyce Kilmer Park","address":"Joyce Kilmer Park","city":"New Brunswick","state":"NJ","zip":"08901","country":"","phone":"732-745-5112","websiteUrl":"http://thecityofnewbrunswick.org/parksandgardens/","imageUrl":"","iconUrl":"","info":"\u003cp\u003eThe New Brunswick Parks system features 272 beautiful acres of parks, playgrounds, passive areas, athletic fields, facilities, lawns, and gardens. Many of our parks can be reserved for special events by contacting the Administration Department at (732) 745-5007.\u003c/p\u003e","latitude":40.4880239,"longitude":-74.4543945,"categories":"All Categories;Move Well::Children \u0026 Youth;Move Well::Seniors;Move Well::Adults","featured":false,"featuredText":"FALSE"},{"id":18288833,"name":"Hyacinth AIDS Foundation - Wellness Program","address":"317 George St, Suite 203","city":"New Brunswick","state":"NJ","zip":"08901","country":"USA","phone":"732-246-0204","websiteUrl":"http://www.hyacinth.org/live/supportive-services/","imageUrl":"","iconUrl":"","info":"\u003cp\u003eThe Wellness Community at Hyacinth helps people manage the emotional impact of an HIV diagnosis. TWCH helps clients find control, hope, and community again through group discussions.\u003c/p\u003e","latitude":40.4930726,"longitude":-74.4429185,"categories":"All Categories;Feel Well::Adults","featured":false,"featuredText":"FALSE"},{"id":18288832,"name":"Hyacinth AIDS Foundation - Prevention Services","address":"317 George St, Suite 203","city":"New Brunswick","state":"NJ","zip":"08901","country":"USA","phone":"732-246-0204","websiteUrl":"http://www.hyacinth.org/protect/prevention-services/","imageUrl":"","iconUrl":"","info":"\u003cp\u003eHyacinth’s \u0026#160;HIV Prevention Services for men, women, and people living with HIV\u003c/p\u003e","latitude":40.4930726,"longitude":-74.4429185,"categories":"All Categories;Feel Well::Adults","featured":false,"featuredText":"FALSE"},{"id":18288822,"name":"HSE Preparation in Spanish","address":"268 Baldwin Street","city":"New Brunswick","state":"NJ","zip":"08901","country":"USA","phone":"732-745-5300","websiteUrl":"http://www.nbpschools.net/group_profile_view.aspx?id=4aa3d35a-c6d9-4f90-a9ce-d8e89db3e974","imageUrl":"","iconUrl":"","info":"\u003cp\u003ePreparation for the High School Equivalency test (formerly GED) is offered by the New Brunswick Public Schools Adult Learning Center.\u003c/p\u003e","latitude":40.4894356,"longitude":-74.4530445,"categories":"All Categories;Be Well::Adults","featured":false,"featuredText":"FALSE"},{"id":18288821,"name":"HSE Preparation","address":"268 Baldwin Street","city":"New Brunswick","state":"NJ","zip":"08901","country":"USA","phone":"732-745-5300","websiteUrl":"http://www.nbpschools.net/group_profile_view.aspx?id=4aa3d35a-c6d9-4f90-a9ce-d8e89db3e974","imageUrl":"","iconUrl":"","info":"\u003cp\u003ePreparation for the High School Equivalency test (formerly GED) is offered by the New Brunswick Public Schools Adult Learning Center.\u003c/p\u003e","latitude":40.4894356,"longitude":-74.4530445,"categories":"All Categories;Be Well::Adults","featured":false,"featuredText":"FALSE"},{"id":18289217,"name":"Food Stamps Program","address":"181 How Lane","city":"New Brunswick","state":"NJ","zip":"08901","country":"USA","phone":"732-745-3500","websiteUrl":"http://middlesexcwa.newark.rutgers.edu/programs.html#program7","imageUrl":"","iconUrl":"","info":"\u003cp\u003eThe Food Stamp Program is a federally funded program administered by the U.S. Department of Agriculture (USDA) which provides benefits to eligible households in order to increase their food purchasing power and improve the nutritional adequacy of the diets of low-income families.\u003c/p\u003e","latitude":40.4753897,"longitude":-74.4869142,"categories":"All Categories;Eat Well::Children \u0026 Youth;Eat Well::Adults;Eat Well::Seniors","featured":false,"featuredText":"FALSE"},{"id":19282143,"name":"First Reformed Church","address":"9 Bayard Street","city":"New Brunswick","state":"NJ","zip":"08901","country":"USA","phone":"","websiteUrl":"","imageUrl":"","iconUrl":"","info":"","latitude":40.4950254,"longitude":-74.4423429,"categories":"Events","featured":false,"featuredText":"FALSE"},{"id":18289221,"name":"Family Outreach Program","address":"103 Church St, Suite 210","city":"New Brunswick","state":"NJ","zip":"08901","country":"USA","phone":"800-244-53736","websiteUrl":"https://www.preventchildabusenj.org/programs/family-outreach/","imageUrl":"","iconUrl":"","info":"\u003cp\u003eThe Family Outreach Program provides information about referrals and resources, family coaching, child development awareness, and addresses basic family needs in an effort to close the gap in intellectual levels between urban and suburban kindergarteners.\u003c/p\u003e","latitude":40.4963429,"longitude":-74.4433422,"categories":"All Categories;Be Well::Children \u0026 Youth;Be Well::Adults","featured":false,"featuredText":"FALSE"},{"id":18639218,"name":"Elijah\u0027s Promise","address":"211 Livingston Ave","city":"New Brunswick","state":"NJ","zip":"08901","country":"USA","phone":"732-545-9002","websiteUrl":"http://www.elijahspromise.org/","imageUrl":"","iconUrl":"","info":"\u003cp\u003eSince 1989, Elijah’s Promise has used food as a tool to alleviate hunger, empower lives and invite justice for the most vulnerable members of our Central New Jersey community. We operate a community soup kitchen, culinary arts school, catering business, pay-as-you-can café, and connect low-income individuals and families with social and health services. With the support of volunteers, donors and community partners, we serve more than 100,000 meals per year and train previously unskilled workers for careers in the food service industry.\u003c/p\u003e","latitude":40.4866322,"longitude":-74.4514874,"categories":"All Categories;Eat Well::Children \u0026 Youth;Eat Well::Adults;Be Well::Adults","featured":false,"featuredText":"FALSE"},{"id":18639217,"name":"Catholic Charities, Diocese of Metuchen","address":"56 Throop Avenue","city":"New Brunswick","state":"NJ","zip":"08901","country":"USA","phone":"732-545-1681","websiteUrl":"http://www.ccdom.org/","imageUrl":"","iconUrl":"","info":"\u003cp\u003eCatholic Charities, Diocese of Metuchen, uses the principles of quality, creativity, respect and empowerment as the guiding forces behind the agency\u0027s mission. When reaching out to those in the community needing service, particular attention is given to the poor, undervalued or disenfranchised. Programs focus on the value of family, individual knowledge and the right of every client to be treated with dignity and respect.\u003c/p\u003e","latitude":40.4868095,"longitude":-74.442939,"categories":"All Categories;Be Well::Children \u0026 Youth;Be Well::Adults;Be Well::Seniors","featured":false,"featuredText":"FALSE"},{"id":18285913,"name":"New Brunswick Mayor\u0027s Office","address":"78 Bayard St","city":"New Brunswick","state":"NJ","zip":"08901","country":"USA","phone":"732-745-5004","websiteUrl":"http://thecityofnewbrunswick.org/mayors-office/","imageUrl":"","iconUrl":"","info":"\u003cp\u003eJim Cahill is the 62nd Mayor of the City of New Brunswick. During his tenure as Mayor, New Brunswick has experienced an unprecedented wave of growth and investment that has transformed this once declining industrial City into a thriving 21st Century Urban Center.\u003c/p\u003e","latitude":40.4939069,"longitude":-74.4456473,"categories":"All Categories;Be Safe::Home Services","featured":false,"featuredText":"FALSE"},{"id":18287323,"name":"New Brunswick Police Department","address":"25 Kirkpatrick St","city":"New Brunswick","state":"NJ","zip":"08901","country":"USA","phone":"732-745-5200","websiteUrl":"http://thecityofnewbrunswick.org/police/","imageUrl":"","iconUrl":"","info":"\u003cp\u003eThe New Brunswick Police Department is committed to providing a safe and peaceful environment in the City of New Brunswick through effective and impartial law enforcement.\u003c/p\u003e","latitude":40.4946001,"longitude":-74.4466524,"categories":"All Categories;Be Safe::Home Services","featured":false,"featuredText":"FALSE"},{"id":18288733,"name":"New Jersey Employment Services (Work Force NJ)","address":"550 Jersey Ave","city":"New Brunswick","state":"NJ","zip":"08901","country":"USA","phone":"732-937-6200","websiteUrl":"http://jobs4jersey.com/jobs4jersey/","imageUrl":"","iconUrl":"","info":"\u003cp\u003eThe New Jersey Employment Services help job seekers find jobs and employers find workers. They provide specific programs for veterans, workers ages 55+, ex-offenders, and individuals with disabilities.\u003c/p\u003e","latitude":40.4792327,"longitude":-74.4676982,"categories":"All Categories;Be Well::Adults","featured":false,"featuredText":"FALSE"},{"id":18288896,"name":"Planned Parenthood - New Brunswick","address":"10B Industrial Dr","city":"Trenton","state":"NJ","zip":"08901","country":"USA","phone":"732-246-2411","websiteUrl":"http://www.plannedparenthood.org/","imageUrl":"","iconUrl":"","info":"\u003cp\u003ePlanned Parenthood delivers vital reproductive health care, sex education, and information to millions of women, men, and young people worldwide.\u003c/p\u003e","latitude":40.2429177,"longitude":-74.7266662,"categories":"All Categories;Be Well::Children \u0026 Youth;Be Well::Adults;Be Well::Seniors;Feel Well::Adults;Feel Well::Children \u0026 Youth;Feel Well::Seniors","featured":false,"featuredText":"FALSE"},{"id":18288918,"name":"Ronald McDonald House - New Brunswick","address":"145 Somerset St","city":"New Brunswick","state":"NJ","zip":"08901","country":"USA","phone":"732-249-1222","websiteUrl":"http://www.rmh-cnj.org/","imageUrl":"","iconUrl":"","info":"\u003cp\u003eThe Ronald McDonald House of New Brunswick, is located adjacent to the Robert Wood Johnson University campus.\u003c/p\u003e\u003cp\u003eA critical need for the House was identified in 2000, due in part to the continuing expansion of quality pediatric services in this “Healthcare City.” The New Brunswick House serves all hospitals and medical facilities throughout the greater New Brunswick area.The New Brunswick house includes:\u003c/p\u003e\u003cp\u003e\u003cul\u003e\u003cli\u003eSix themed bedrooms with private baths and phones with voicemail; the smallest bedroom can accommodate up to three people and the larger rooms up to six\u003c/li\u003e\u003cli\u003eA full kitchen with two of each appliance, a well-stocked pantry and a food storage area for each family\u003c/li\u003e\u003cli\u003eLaundry facilities with supplies\u003c/li\u003e\u003cli\u003eHygiene items, linens and towels\u003c/li\u003e\u003cli\u003eA comfortable living room with new computers\u003c/li\u003e\u003cli\u003eA bright, fun playroom with an area for teens\u003c/li\u003e\u003cli\u003eAn enclosed yard with a playground area and a covered porch for relaxing\u003c/li\u003e\u003cli\u003eFree parking on House grounds\u003c/li\u003e\u003cli\u003e24-hour staffing\u003c/li\u003e\u003cli\u003eLots of support from our staff, volunteers and other guests\u003c/li\u003e\u003c/ul\u003e\u003c/p\u003e\u003cp\u003eFor special accommodation needs, please call 732-249-1222 before your arrival.\u0026#160;\u003c/p\u003e","latitude":40.4968176,"longitude":-74.4493606,"categories":"All Categories;Be Well::Children \u0026 Youth","featured":false,"featuredText":"FALSE"},{"id":18288919,"name":"St. Peter\u0027s Food and Nutrition Services","address":"254 Easton Ave","city":"New Brunswick","state":"NJ","zip":"08901","country":"USA","phone":"732-745-7930","websiteUrl":"http://www.saintpetershcs.com/Food-and-Nutrition-Services/","imageUrl":"","iconUrl":"","info":"\u003cp\u003eAt the Food and Nutrition Services, registered dietitians at Saint Peter\u0027s University Hospital offer personal nutrition counseling and diet education for children and adults.\u003c/p\u003e","latitude":40.5014908,"longitude":-74.459056,"categories":"All Categories;Be Well::Children \u0026 Youth;Be Well::Adults;Be Well::Seniors","featured":false,"featuredText":"FALSE"},{"id":18288920,"name":"St. Peter\u0027s Natural Family Planning","address":"222 Easton Ave","city":"New Brunswick","state":"NJ","zip":"08901","country":"USA","phone":"732-565-5490","websiteUrl":"http://www.saintpetershcs.com/Natural-Family-Planning/","imageUrl":"","iconUrl":"","info":"\u003cp\u003eAt The National Gianna Center for Women’s Health and Fertility, fertility specialists use the Creighton Model FertilityCare™ System to monitor a woman’s menstrual and fertility cycle. By learning to identify the signs of a woman’s fertility, a couple can then learn how to use this information to achieve or avoid a pregnancy, depending on their goals.\u003c/p\u003e","latitude":40.5008095,"longitude":-74.4570171,"categories":"All Categories;Feel Well::Adults","featured":false,"featuredText":"FALSE"},{"id":18288924,"name":"Saint Peter\u0027s Community Education","address":"254 Easton Ave","city":"New Brunswick","state":"NJ","zip":"08901","country":"USA","phone":"732-565-5496","websiteUrl":"http://www.saintpetershcs.com/Community-Outreach/","imageUrl":"","iconUrl":"","info":"\u003cp\u003eSaint Peter’s University Hospital offers the community a variety of free health-related lectures, health education programs and classes, medical screenings, and support groups.\u003c/p\u003e","latitude":40.5014908,"longitude":-74.459056,"categories":"All Categories;Be Well::Children \u0026 Youth;Be Well::Adults;Be Well::Seniors;Feel Well::Adults;Feel Well::Children \u0026 Youth;Feel Well::Seniors","featured":false,"featuredText":"FALSE"},{"id":18288925,"name":"Saint Peter\u0027s Community Mobile Health Unit","address":"254 Easton Ave","city":"New Brunswick","state":"NJ","zip":"08901","country":"USA","phone":"","websiteUrl":"http://www.saintpetershcs.com/Community-Mobile-Health-Services/","imageUrl":"","iconUrl":"","info":"\u003cp\u003eWhen members of the community can’t get to Saint Peter’s University Hospital for health care, Saint Peter’s takes health care into the community with a 34-foot health van that visits schools, retirement communities, day care centers, homeless shelters, senior centers, public housing complexes, shopping centers, and corporations.\u003c/p\u003e","latitude":40.5014908,"longitude":-74.459056,"categories":"Be Well::Children \u0026 Youth;Be Well::Adults;Be Well::Seniors;Feel Well::Adults;Feel Well::Children \u0026 Youth;Feel Well::Seniors","featured":false,"featuredText":"FALSE"},{"id":18288942,"name":"Saint Peter\u0027s Family Health Center","address":"123 How Lane","city":"New Brunswick","state":"NJ","zip":"08901","country":"USA","phone":"732-745-6642","websiteUrl":"http://www.saintpetershcs.com/Family-Health-Center/","imageUrl":"","iconUrl":"","info":"\u003cp\u003eThe Family Health Center provides primary and preventive health care for children and adults.\u003c/p\u003e","latitude":40.4713601,"longitude":-74.4830174,"categories":"All Categories;Feel Well::Adults;Feel Well::Children \u0026 Youth;Feel Well::Seniors","featured":false,"featuredText":"FALSE"},{"id":18288943,"name":"For Keeps: Children\u0027s Acute Partial Hospitalization Program for behavioral health services","address":"123 How Lane","city":"New Brunswick","state":"NJ","zip":"08901","country":"USA","phone":"732-745-6642","websiteUrl":"http://www.saintpetershcs.com/Family-Health-Center/","imageUrl":"","iconUrl":"","info":"\u003cp\u003eSaint Peter’s University Hospital\u0027s For KEEPS program (Kids Embraced and Empowered through Psychological Services) is a short term acute partial-hospitalization state of the art unit. They offer high quality mental health diagnoses and intensive treatment to children who suffer from emotional and behavioral difficulties.\u003c/p\u003e","latitude":40.4713601,"longitude":-74.4830174,"categories":"All Categories;Feel Well::Children \u0026 Youth","featured":false,"featuredText":"FALSE"},{"id":18288953,"name":"Moving Forward Community Wellness Center","address":"25 E Elizabeth St, Fl 2","city":"New Brunswick","state":"NJ","zip":"New Brunswick","country":"USA","phone":"732-317-2920","websiteUrl":"http://www.movingforwardshc.org","imageUrl":"","iconUrl":"","info":"\u003cp\u003eThe Moving Forward Self-Help Center is a place where adult mental health consumers gather in a safe, supportive and friendly environment designed to empower them to realize a lifestyle centered on wellness and recovery.\u003c/p\u003e","latitude":40.4790267,"longitude":-74.4614306,"categories":"All Categories;Be Well::Adults","featured":false,"featuredText":"FALSE"},{"id":18289146,"name":"HIV/AIDS Counseling and Testing","address":"Little Albany St, Suite 1","city":"New Brunswick","state":"NJ","zip":"08901","country":"USA","phone":"732-235-7114","websiteUrl":"http://umg.umdnj.edu/public/clinical_services/program.asp?dept=medicine\u0026program=allergy/hctp","imageUrl":"","iconUrl":"","info":"\u003cp\u003eThe HIV Counseling and Testing Program serves the needs of those persons who may be at risk for the acquisition of infection with the human immunodeficiency virus (HIV).\u003c/p\u003e","latitude":40.4961728,"longitude":-74.4477496,"categories":"All Categories;Be Well::Children \u0026 Youth;Be Well::Adults;Be Well::Seniors;Feel Well::Adults;Feel Well::Children \u0026 Youth;Feel Well::Seniors","featured":false,"featuredText":"FALSE"},{"id":18289149,"name":"SIDS Center of New Jersey","address":"1 Robert Wood Johnson Place, MEB Floor 3, #312","city":"New Brunswick","state":"NJ","zip":"08901","country":"USA","phone":"732-249-2160","websiteUrl":"http://www.rwjms.rutgers.edu/sids/index.html","imageUrl":"","iconUrl":"","info":"\u003cp\u003eThe Sudden Infant Death Syndrome Center of New Jersey (SCNJ) is a program that works with parents, grandparents, physicians, nurses, the child care community, hospitals, first responders, schools, social service agencies, health and education programs and state, federal and national organizations to reduce infant mortality and the racial and ethnic disparities associated with it.\u003c/p\u003e","latitude":40.495315,"longitude":-74.4498149,"categories":"All Categories;Be Well::Children \u0026 Youth","featured":false,"featuredText":"FALSE"},{"id":18289152,"name":"New Brunswick Group Home (YCS)","address":"18 Abeel St","city":"New Brunswick","state":"NJ","zip":"08901","country":"USA","phone":"732-545-5444","websiteUrl":"http://www.ycs.org/","imageUrl":"","iconUrl":"","info":"\u003cp\u003eThe Sawtelle Home for Children in New Brunswick is a \u0026#160;therapeutic residence for 4 girls under the age of 21 with a dual diagnosis of intellectual/developmental disabilities and behavioral health issues.\u0026#160;\u003c/p\u003e","latitude":40.4885472,"longitude":-74.4398429,"categories":"All Categories;Be Well::Children \u0026 Youth;Feel Well::Children \u0026 Youth","featured":false,"featuredText":"FALSE"},{"id":18289153,"name":"New Brunswick Animal Control","address":"25 Kirkpatrick St","city":"New Brunswick","state":"NJ","zip":"08901","country":"USA","phone":"732-745-5200","websiteUrl":"http://thecityofnewbrunswick.org/police/animal-control/","imageUrl":"","iconUrl":"","info":"\u003cp\u003eThe New Brunswick Division of Animal Control responds to calls in both New Brunswick and North Brunswick, rents traps to New Brunswick residents to remove unwanted animals from private property in a harmless way and provides basic veterinary services to animals without owners.\u003c/p\u003e","latitude":40.4946001,"longitude":-74.4466524,"categories":"All Categories;Be Safe::Home Services","featured":false,"featuredText":"FALSE"},{"id":18289155,"name":"New Brunswick Dial-A-Ride","address":"25 Kirkpatrick St","city":"New Brunswick","state":"NJ","zip":"08901","country":"USA","phone":"732-745-5161","websiteUrl":"http://thecityofnewbrunswick.org/planninganddevelopment/transportation/","imageUrl":"","iconUrl":"","info":"\u003cp\u003eDial-A-Ride is a free curb-to-curb transportation service provided for elderly (60+), disabled and low income residents of the City of New Brunswick.\u003c/p\u003e","latitude":40.4946001,"longitude":-74.4466524,"categories":"All Categories;Move Well::Seniors","featured":false,"featuredText":"FALSE"},{"id":18289157,"name":"New Brunswick Vital Statistics Bureau","address":"78 Bayard St","city":"New Brunswick","state":"NJ","zip":"08901","country":"USA","phone":"732-745-5003","websiteUrl":"http://thecityofnewbrunswick.org/birth-certificates/","imageUrl":"","iconUrl":"","info":"\u003cp\u003eThe Office of Vital Statistics and Registry registers vital events and maintains vital records like birth, marriage, death, and adoptions.\u003c/p\u003e","latitude":40.4939069,"longitude":-74.4456473,"categories":"All Categories;Be Well::Children \u0026 Youth;Be Well::Adults;Be Well::Seniors","featured":false,"featuredText":"FALSE"},{"id":18289298,"name":"Retired And Senior Volunteer Program - Salvation Army","address":"287 Handy St","city":"New Brunswick","state":"NJ","zip":"08901","country":"USA","phone":"732-545-1477","websiteUrl":"http://newjersey.salvationarmy.org/NewJersey/senior","imageUrl":"","iconUrl":"","info":"\u003cp\u003eThe Salvation Army of New Brunswick sponsors the Retired Seniors Volunteer Program. The Salvation Army matches the skills, experience and available time of senior volunteers to meet a variety of needs in Middlesex County\u0026#160;\u003c/p\u003e","latitude":40.4896431,"longitude":-74.4512242,"categories":"All Categories;Move Well::Seniors","featured":false,"featuredText":"FALSE"},{"id":18289348,"name":"New Brunswick Youth Services System","address":"83 Livingston Ave","city":"New Brunswick","state":"NJ","zip":"08901","country":"USA","phone":"732-745-5300","websiteUrl":"http://thecityofnewbrunswick.org/social-services/","imageUrl":"","iconUrl":"","info":"\u003cp\u003eNew Brunswick’s Youth Services System provides comprehensive after-school programming for New Brunswick residents ages 6-15. This program operates at seven schools within New Brunswick, providing the opportunity for children from all parts of New Brunswick to participate at a site close to their home.\u003c/p\u003e","latitude":40.4910718,"longitude":-74.4470877,"categories":"All Categories;Be Well::Children \u0026 Youth","featured":false,"featuredText":"FALSE"},{"id":18289427,"name":"Play It Smart","address":"1000 Somerset St","city":"New Brunswick","state":"NJ","zip":"08901","country":"USA","phone":"732-745-5300","websiteUrl":"http://nbhs.nbpschools.net/group_profile_view.aspx?id=9264c307-2335-4c6e-8c6e-497c07b02550","imageUrl":"","iconUrl":"","info":"\u003cp\u003ePlay It Smart is a program for academic support for student athletes.\u003c/p\u003e","latitude":40.4806345,"longitude":-74.4816667,"categories":"All Categories;Move Well::Children \u0026 Youth","featured":false,"featuredText":"FALSE"},{"id":18289504,"name":"Housing Coalition of Central Jersey - PRAB","address":"90 Jersey Ave","city":"New Brunswick","state":"NJ","zip":"08901","country":"USA","phone":"732-249-9700","websiteUrl":"https://prab.org/programs-services/housing/","imageUrl":"","iconUrl":"","info":"\u003cp\u003eThe Housing Coalition of Central Jersey provides a wide range of programs to assist Middlesex County residents with housing services.\u003c/p\u003e","latitude":40.488426,"longitude":-74.4575229,"categories":"All Categories;Be Well::Adults;Be Well::Seniors","featured":false,"featuredText":"FALSE"},{"id":18289552,"name":"Home Energy Assistance Program - Middlesex County - PRAB","address":"90 Jersey Ave","city":"New Brunswick","state":"NJ","zip":"08901","country":"USA","phone":"732-828-4541","websiteUrl":"https://prab.org/programs-services/energy-conservation/","imageUrl":"","iconUrl":"","info":"\u003cp\u003eThe Low-Income Home Energy Assistance Program (LIHEAP) assists eligible individuals and families to receive a benefit towards lowering their heating bills. This program also offers a cooling assistance benefit towards the use of air conditioning during the summer months for those who have a medical need.\u003c/p\u003e","latitude":40.488426,"longitude":-74.4575229,"categories":"All Categories;Be Well::Adults;Be Well::Seniors","featured":false,"featuredText":"FALSE"},{"id":18289553,"name":"PRAB","address":"90 Jersey Ave","city":"New Brunswick","state":"NJ","zip":"08901","country":"USA","phone":"732-828-4510","websiteUrl":"https://prab.org/","imageUrl":"","iconUrl":"","info":"\u003cp\u003ePRAB is a comprehensive Human Services Organization in Middlesex County, New Jersey that provide a comprehensive range of essential services for children, youth, families and senior citizens.\u003c/p\u003e","latitude":40.488426,"longitude":-74.4575229,"categories":"All Categories;Be Well::Children \u0026 Youth;Be Well::Adults;Be Well::Seniors","featured":false,"featuredText":"FALSE"},{"id":18289554,"name":"Preschool Program - PRAB","address":"90 Jersey Ave","city":"New Brunswick","state":"NJ","zip":"08901","country":"USA","phone":"732-828-4510","websiteUrl":"https://prab.org/programs-services/early-childhood/","imageUrl":"","iconUrl":"","info":"\u003cp\u003ePRAB offers a free ten (10) month educational program that provides every child, regardless of their socioeconomic status, a comprehensive and exceptional education. Parents must submit income verification in order to qualify for the wraparound and summer program services.\u003c/p\u003e","latitude":40.488426,"longitude":-74.4575229,"categories":"All Categories;Be Well::Children \u0026 Youth","featured":false,"featuredText":"FALSE"},{"id":18289641,"name":"Project Connect - PRAB","address":"90 Jersey Ave","city":"New Brunswick","state":"NJ","zip":"08901","country":"USA","phone":"732-828-4510","websiteUrl":"https://prab.org/programs-services/youth/","imageUrl":"","iconUrl":"","info":"\u003cp\u003eThe Puerto Rican Action Board\u0027s Project Connect engages at-risk youth in available community programs, thereby reducing anti-social criminal behavior and gang involvement. Both at-risk and court-involved New Brunswick youth are eligible to participate in Project Connect, with the aim of preventing first-time or additional engagement with the juvenile justice system.\u003c/p\u003e","latitude":40.488426,"longitude":-74.4575229,"categories":"All Categories;Be Safe::Home Services","featured":false,"featuredText":"FALSE"},{"id":18289657,"name":"New Brunswick Department of Social Services","address":"25 Kirkpatrick St","city":"New Brunswick","state":"NJ","zip":"08901","country":"USA","phone":"732-745-5003","websiteUrl":"http://thecityofnewbrunswick.org/social-services/","imageUrl":"","iconUrl":"","info":"\u003cp\u003eThe Department of Social Services provides comprehensive social services to the residents of New Brunswick in areas including health, recreation, and vital statistics.\u003c/p\u003e","latitude":40.4946001,"longitude":-74.4466524,"categories":"All Categories;Be Well::Children \u0026 Youth;Be Well::Adults;Be Well::Seniors","featured":false,"featuredText":"FALSE"},{"id":18289712,"name":"The Society of Vincent DePaul Food Pantry","address":"29 Abeel St","city":"New Brunswick","state":"NJ","zip":"08901","country":"USA","phone":"732-545-6701","websiteUrl":"http://svdp-metuchen.org/","imageUrl":"","iconUrl":"","info":"\u003cp\u003eThe Society of Vincent DePaul Food Pantry provides food for individuals who do not have enough food to eat.\u003c/p\u003e","latitude":40.4890297,"longitude":-74.4398217,"categories":"All Categories;Eat Well::Children \u0026 Youth;Eat Well::Adults;Eat Well::Seniors","featured":false,"featuredText":"FALSE"},{"id":18289718,"name":"New Brunswick Senior Center","address":"81 Huntington St","city":"New Brunswick","state":"NJ","zip":"08901","country":"USA","phone":"732-745-5100","websiteUrl":"http://thecityofnewbrunswick.org/social-services/","imageUrl":"","iconUrl":"","info":"\u003cp\u003eThe New Brunswick Senior Citizen Resource Center (NBSCRC) is a multi-purpose facility for independent seniors and is designed to provide a safe, supportive and stimulating environment.\u0026#160;\u003c/p\u003e","latitude":40.5033421,"longitude":-74.4575527,"categories":"All Categories;Move Well::Seniors","featured":false,"featuredText":"FALSE"},{"id":18289722,"name":"New Brunswick Recreation","address":"411 Joyce Kilmer Ave","city":"New Brunswick","state":"NJ","zip":"08901","country":"USA","phone":"732-745-5125","websiteUrl":"http://nbrec.com/","imageUrl":"","iconUrl":"","info":"\u003cp\u003eNew Brunswick Recreation is pleased to offer a variety of programs for its residents and visitors in the City of New Brunswick, New Jersey.\u003c/p\u003e","latitude":40.48308,"longitude":-74.4593104,"categories":"All Categories;Move Well::Children \u0026 Youth;Move Well::Seniors;Move Well::Adults","featured":false,"featuredText":"FALSE"},{"id":18639435,"name":"Soup Kitchen - Ebenezer Baptist Church - Feed My Sheep Ministry","address":"126 Lee Street","city":"New Brunswick","state":"NJ","zip":"08901","country":"USA","phone":"732-247-2459","websiteUrl":"http://ebconline.moonfruit.com/feed-my-sheep-ministry/4589202393","imageUrl":"","iconUrl":"","info":"","latitude":40.4856462,"longitude":-74.4491786,"categories":"All Categories;Eat Well::Children \u0026 Youth;Eat Well::Adults;Eat Well::Seniors","featured":false,"featuredText":"FALSE"},{"id":18639465,"name":"Rutgers Gardens Farmers Market","address":"112 Ryders Lane","city":"New Brunswick","state":"NJ","zip":"08901","country":"USA","phone":"732-932-8451","websiteUrl":"http://www.rutgersgardens.rutgers.edu/farmmarket.htm","imageUrl":"","iconUrl":"","info":"\u003cp\u003eRutgers Gardens Farmers Market offers locally grown and made food such as poultry, meat, cheese, baked goods, pickles, fruit, and vegetables. The Farmers Market, a partnership of the Rutgers School of Environmental and Biological Sciences (SEBS) and the New Jersey Agricultural Experiment Station (NJAES), promotes recycling, conservation, and sustainable farming. The market is open Fridays 11am–5pm, May 2nd through November 28, 2014.\u003c/p\u003e","latitude":40.4832347,"longitude":-74.4306278,"categories":"All Categories;Eat Well::Children \u0026 Youth;Eat Well::Adults;Eat Well::Seniors","featured":false,"featuredText":"FALSE"},{"id":18639497,"name":"Homeless Prevention Rapid Re-Housing","address":"26 Safran Avenue","city":"Edison","state":"NJ","zip":"08837","country":"USA","phone":"732) 738-1323","websiteUrl":"http://www.ccdom.org/basic-needs-making-ends-meet/homeless-prevention-rapid-re-housing","imageUrl":"","iconUrl":"","info":"\u003cp\u003eHomeless Prevention Rapid Re-Housing (HPRP) is a short-term financial assistance program for individuals and families who are having difficulty maintaining their current utility bill, rental housing and have a court ordered eviction notice or have lost their housing and are currently homeless. Types of Financial Assistance include: Rental Arrears, Short Term Rental Assistance, Security Deposits, and Utility Deposits and Arrears.\u003c/p\u003e","latitude":40.5281283,"longitude":-74.3180925,"categories":"All Categories;Be Well::Adults;Be Well::Seniors","featured":false,"featuredText":"FALSE"},{"id":18639528,"name":"Robert Wood Johnson University Hospital","address":"One Robert Wood Johnson Place","city":"New Brunswick","state":"NJ","zip":"08901","country":"USA","phone":"732-828-3000","websiteUrl":"https://www.rwjuh.edu/rwjuh/contact-us.aspx","imageUrl":"","iconUrl":"","info":"\u003cp\u003eRWJUH New Brunswick is the flagship Cancer Hospital of Rutgers Cancer Institute of New Jersey and the principal hospital of Rutgers Robert Wood Johnson Medical School in New Brunswick, NJ. Robert Wood Johnson is an innovative leader in advancing state-of-the-art care. Its Centers of Excellence include cardiovascular care from minimally invasive heart surgery to transplantation, cancer care, and women’s and children’s care including The Bristol-Myers Squibb Children’s Hospital at Robert Wood Johnson University Hospital. The hospital is also a Level 1 Trauma Center and serves as a national resource in its ground-breaking approaches to emergency preparedness. The hospital has earned significant national recognition for clinical quality and patient safety. RWJUH has been ranked among the best hospitals in America by U.S. News \u0026amp; World Report six times and has been selected by the publication as a high performing hospital in several specialties. The Bristol-Myers Squibb Children’s Hospital has also ranked among the nation’s Best Children’s Hospitals by U.S. News \u0026amp; World Report for two consecutive years. The American College of Surgeons’ Commission on Cancer has rated RWJUH among the nation’s best comprehensive cancer centers and the hospital’s Comprehensive Stroke Center is certified by the Joint Commission to provide complex stroke care. The Leapfrog Group rated RWJUH as one of the 50 exceptional U.S. hospitals, as published in Consumers Digest magazine, and has given the hospital an “A” grade for safety and quality. Harvard University researchers, in a study commissioned by The Commonwealth Fund, identified RWJUH as one of the top 10 hospitals in the nation for clinical quality. RWJUH is also a four-time recipient of the prestigious Magnet Award for Nursing Excellence. The Institute for Diversity and Health Management, an American Hospital Association (AHA) affiliate, has recognized RWJUH as a “Best in Class” hospital for diversity management and addressing health disparities.\u003c/p\u003e","latitude":40.495315,"longitude":-74.4498149,"categories":"All Categories;Feel Well::Adults;Feel Well::Children \u0026 Youth;Feel Well::Seniors","featured":false,"featuredText":"FALSE"},{"id":18639529,"name":"Robert Wood Johnson Pediatric AIDS Program","address":"One Robert Wood Johnson Place","city":"New Brunswick","state":"NJ","zip":"08901","country":"USA","phone":"732-235-7894","websiteUrl":"http://umg.umdnj.edu/public/clinical_services/program.asp?dept=pediatrics\u0026program=allergy/rwjpap","imageUrl":"","iconUrl":"","info":"\u003cp\u003eThis Program is a regional Pediatric HIV Treatment Center supported partially by the New Jersey State Department of Health. It consists of a coordinated team of physicians, nurses, social workers and psychologists who provide a comprehensive case management approach to the patient with HIV infection that extends from the home to the outpatient department, to the hospital and home again. Referrals and services are coordinated with local visiting nursing services, early intervention programs and other community services. The Program participates as a pediatric AIDS clinical trials unit with the National Institutes of Child Health and Human Development, and Allergy and Infectious Diseases. This participation ensures access to the latest investigational treatment, contributing to improved clinical outcomes.\u003c/p\u003e","latitude":40.495315,"longitude":-74.4498149,"categories":"All Categories;Feel Well::Children \u0026 Youth","featured":false,"featuredText":"FALSE"},{"id":18918128,"name":"Hyatt Regency Hotel","address":"2 Albany Street","city":"New Brunswick","state":"08901","zip":"NJ","country":"USA","phone":"","websiteUrl":"","imageUrl":"","iconUrl":"","info":"","latitude":40.4962421,"longitude":-74.4412686,"categories":"Events","featured":false,"featuredText":"FALSE"},{"id":18943589,"name":"New Brunswick Recreation / HUB Teen Center","address":"411 Joyce Kilmer Avenue","city":"New Brunswick","state":"NJ","zip":"08901","country":"USA","phone":"","websiteUrl":"","imageUrl":"","iconUrl":"","info":"","latitude":40.4830248,"longitude":-74.459239,"categories":"Events","featured":false,"featuredText":"FALSE"},{"id":18947570,"name":"New Brunswick Community Farmers Market - Albany St.","address":"108 Albany Street","city":"New Brunswick","state":"NJ","zip":"08901","country":"US","phone":"848-932-3706","websiteUrl":"http://www.nbcfarmersmarket.com/","imageUrl":"","iconUrl":"","info":"\u003cp\u003eJohnson \u0026amp; Johnson and Rutgers University Cooperative Extension run the New Brunswick Community Farmers Market (NBCFM), a community farmers market that increases access to fresh healthy food and instills healthy eating habits. Nutrition interns and SNAP-Ed educators provide nutrition lessons and food purchasing tips. People who use federal nutrition assistance such as SNAP, WIC checks, and Senior Farmers Market Nutrition Program vouchers can receive an additional 50% more produce through the Market Bucks program. Those who spend $10 receive an extra $5 in Market Bucks, which extends their food budgets and encourages the purchase of fresh produce. The market also operates a community garden in which volunteers and residents plant produce for the community (NBCFM website; Bradshaw, 2013). Open from June-November, Wednesdays 11AM-3PM.\u003c/p\u003e","latitude":40.496798,"longitude":-74.4441005,"categories":"All Categories;Eat Well::Children \u0026 Youth;Eat Well::Adults;Eat Well::Seniors","featured":false,"featuredText":"FALSE"},{"id":18947572,"name":"New Brunswick Community Farmers Market - Cook Campus","address":"49 Nichol Ave.","city":"New Brunswick","state":"NJ","zip":"08901","country":"US","phone":"848-932-3706","websiteUrl":"http://www.nbcfarmersmarket.com/","imageUrl":"","iconUrl":"","info":"\u003cp\u003eJohnson \u0026amp; Johnson and Rutgers University Cooperative Extension run the New Brunswick Community Farmers Market (NBCFM), a community farmers market that increases access to fresh healthy food and instills healthy eating habits. Nutrition interns and SNAP-Ed educators provide nutrition lessons and food purchasing tips. People who use federal nutrition assistance such as SNAP, WIC checks, and Senior Farmers Market Nutrition Program vouchers can receive an additional 50% more produce through the Market Bucks program. Those who spend $10 receive an extra $5 in Market Bucks, which extends their food budgets and encourages the purchase of fresh produce. The market also operates a community garden in which volunteers and residents plant produce for the community (NBCFM website; Bradshaw, 2013). Open from September-November, Thursdays 11AM-3PM.\u003c/p\u003e","latitude":40.483655,"longitude":-74.4390282,"categories":"All Categories;Eat Well::Children \u0026 Youth;Eat Well::Adults;Eat Well::Seniors","featured":false,"featuredText":"FALSE"},{"id":18947573,"name":"New Brunswick Community Farmers Market - Jones Ave.","address":"178 Jones Ave","city":"New Brunswick","state":"NJ","zip":"08901","country":"US","phone":"848-932-3706","websiteUrl":"http://www.nbcfarmersmarket.com/","imageUrl":"","iconUrl":"","info":"Johnson \u0026amp; Johnson and Rutgers University Cooperative Extension run the New Brunswick Community Farmers Market (NBCFM), a community farmers market that increases access to fresh healthy food and instills healthy eating habits. Nutrition interns and SNAP-Ed educators provide nutrition lessons and food purchasing tips. People who use federal nutrition assistance such as SNAP, WIC checks, and Senior Farmers Market Nutrition Program vouchers can receive an additional 50% more produce through the Market Bucks program. Those who spend $10 receive an extra $5 in Market Bucks, which extends their food budgets and encourages the purchase of fresh produce. The market also operates a community garden in which volunteers and residents plant produce for the community (NBCFM website; Bradshaw, 2013). Open from June-November, Saturdays 10AM-3PM;  Open from June-August, Thursdays 11AM-3PM.","latitude":40.4802701,"longitude":-74.4443569,"categories":"All Categories;Eat Well::Children \u0026 Youth;Eat Well::Adults;Eat Well::Seniors","featured":false,"featuredText":"FALSE"},{"id":18947736,"name":"Key Foods","address":"95 Paterson Street","city":"New Brunswick","state":"NJ","zip":"08901","country":"","phone":"732-317-0590","websiteUrl":"http://www.keyfoodnewbrunswick.com/","imageUrl":"","iconUrl":"","info":"\u003cp\u003eMega Supermarket\u0026#160;\u003c/p\u003e\u003cp\u003eJuice Bar, Sushi, Hot Food, Deli/Bakery, Fish, Meat, Grocery, Dairy, Frozen, Household, Health, Beauty, Beer/Wine, and Huge International section-Mexico, Ecuador, Jamaica, India, Columbia, Puerto Rico, South Korea, etc.\u003c/p\u003e","latitude":40.4946477,"longitude":-74.4475187,"categories":"All Categories;Eat Well::Children \u0026 Youth;Eat Well::Adults;Eat Well::Seniors","featured":false,"featuredText":"FALSE"},{"id":19092233,"name":"Joyce Kilmer Avenue","address":"Joyce Kilmer Avenue","city":"New Brunswick","state":"NJ","zip":"08901","country":"USA","phone":"","websiteUrl":"","imageUrl":"","iconUrl":"","info":"","latitude":40.495377,"longitude":-74.4481686,"categories":"Uncategorized","featured":false,"featuredText":"FALSE"},{"id":19282128,"name":"New Brunswick Free Public Library","address":"60 Livingston Avenue","city":"New Brunswick","state":"08901","zip":"NJ","country":"USA","phone":"","websiteUrl":"","imageUrl":"","iconUrl":"","info":"","latitude":40.4913441,"longitude":-74.445477,"categories":"Events","featured":false,"featuredText":"FALSE"}]